$GNRMC,174815.00,A,4623.56705,N,11658.40206,W,0.977,,050821,,,A*7C
$GNVTG,,T,,M,0.977,N,1.810,K,A*3C
$GNGGA,174815.00,4623.56705,N,11658.40206,W,1,04,2.23,438.4,M,-18.2,M,,*7D
$GNGSA,A,3,,,,,,,,,,,,,4.45,2.23,3.86*17
$GNGSA,A,3,65,87,66,78,,,,,,,,,4.45,2.23,3.86*14
$GPGSV,1,1,03,02,29,067,,20,49,065,,26,16,319,*46
$GLGSV,3,1,10,65,42,098,09,66,11,157,19,72,28,041,,78,24,222,24*67
$GLGSV,3,2,10,79,39,282,,80,13,338,,81,44,300,,82,02,277,*6B
$GLGSV,3,3,10,87,24,075,20,88,60,039,*61
$GNGLL,4623.56705,N,11658.40206,W,174815.00,A,A*62
$GNRMC,174816.00,A,4623.56696,N,11658.40224,W,0.295,,050821,,,A*73
$GNVTG,,T,,M,0.295,N,0.546,K,A*34
$GNGGA,174816.00,4623.56696,N,11658.40224,W,1,04,2.23,438.1,M,-18.2,M,,*70
$GNGSA,A,3,,,,,,,,,,,,,4.45,2.23,3.86*17
$GNGSA,A,3,65,87,66,78,,,,,,,,,4.45,2.23,3.86*14
$GPGSV,1,1,03,02,29,067,,20,49,065,,26,16,319,*46
$GLGSV,3,1,10,65,42,098,14,66,11,157,19,72,28,041,,78,24,222,25*6A
$GLGSV,3,2,10,79,39,282,,80,13,338,,81,44,300,,82,02,277,*6B
$GLGSV,3,3,10,87,24,075,20,88,60,039,*61
$GNGLL,4623.56696,N,11658.40224,W,174816.00,A,A*6A
$GNRMC,174817.00,A,4623.56636,N,11658.40169,W,1.708,,050821,,,A*72
$GNVTG,,T,,M,1.708,N,3.163,K,A*34
$GNGGA,174817.00,4623.56636,N,11658.40169,W,1,04,2.23,438.0,M,-18.2,M,,*70
$GNGSA,A,3,,,,,,,,,,,,,4.45,2.23,3.86*17
$GNGSA,A,3,65,87,66,78,,,,,,,,,4.45,2.23,3.86*14
$GPGSV,1,1,03,02,29,067,,20,49,065,,26,16,319,*46
$GLGSV,3,1,10,65,42,098,16,66,11,157,20,72,28,041,,78,24,222,24*63
$GLGSV,3,2,10,79,39,282,,80,13,338,,81,44,300,,82,02,277,*6B
$GLGSV,3,3,10,87,24,075,20,88,60,039,*61
$GNGLL,4623.56636,N,11658.40169,W,174817.00,A,A*6B
$GNRMC,174818.00,A,4623.56613,N,11658.40156,W,1.161,,050821,,,A*7F
$GNVTG,,T,,M,1.161,N,2.151,K,A*3D
$GNGGA,174818.00,4623.56613,N,11658.40156,W,1,04,2.23,437.9,M,-18.2,M,,*72
$GNGSA,A,3,,,,,,,,,,,,,4.45,2.23,3.86*17
$GNGSA,A,3,65,87,66,78,,,,,,,,,4.45,2.23,3.86*14
$GPGSV,1,1,03,02,29,067,,20,49,065,,26,16,319,*46
$GLGSV,3,1,10,65,42,098,11,66,11,157,19,72,28,041,,78,24,222,22*68
$GLGSV,3,2,10,79,39,282,,80,13,338,,81,44,300,,82,02,277,*6B
$GLGSV,3,3,10,87,24,075,20,88,60,039,*61
$GNGLL,4623.56613,N,11658.40156,W,174818.00,A,A*6F
$GNRMC,174819.00,A,4623.56614,N,11658.40156,W,0.842,,050821,,,A*70
$GNVTG,,T,,M,0.842,N,1.559,K,A*3B
$GNGGA,174819.00,4623.56614,N,11658.40156,W,1,04,2.23,437.8,M,-18.2,M,,*75
$GNGSA,A,3,,,,,,,,,,,,,4.45,2.23,3.86*17
$GNGSA,A,3,65,87,66,78,,,,,,,,,4.45,2.23,3.86*14
$GPGSV,1,1,03,02,29,067,,20,49,065,,26,16,319,*46
$GLGSV,3,1,10,65,42,098,11,66,11,157,19,72,28,041,,78,24,222,23*69
$GLGSV,3,2,10,79,39,282,,80,13,338,,81,44,300,,82,02,277,*6B
$GLGSV,3,3,10,87,24,075,20,88,60,039,*61
$GNGLL,4623.56614,N,11658.40156,W,174819.00,A,A*69
$GNRMC,174820.00,A,4623.56631,N,11658.40133,W,1.246,,050821,,,A*71
$GNVTG,,T,,M,1.246,N,2.307,K,A*3A
$GNGGA,174820.00,4623.56631,N,11658.40133,W,1,04,2.23,437.7,M,-18.2,M,,*74
$GNGSA,A,3,,,,,,,,,,,,,4.45,2.23,3.86*17
$GNGSA,A,3,65,87,66,78,,,,,,,,,4.45,2.23,3.86*14
$GPGSV,1,1,03,02,29,067,,20,49,065,,26,16,319,*46
$GLGSV,3,1,10,65,42,098,11,66,11,157,20,72,28,041,,78,24,222,23*63
$GLGSV,3,2,10,79,39,282,,80,13,338,,81,44,300,,82,02,277,*6B
$GLGSV,3,3,10,87,24,075,21,88,60,039,*60
$GNGLL,4623.56631,N,11658.40133,W,174820.00,A,A*67
$GNRMC,174821.00,A,4623.56625,N,11658.40128,W,0.526,,050821,,,A*7F
$GNVTG,,T,,M,0.526,N,0.974,K,A*36
$GNGGA,174821.00,4623.56625,N,11658.40128,W,1,04,2.23,437.4,M,-18.2,M,,*79
$GNGSA,A,3,,,,,,,,,,,,,4.45,2.23,3.86*17
$GNGSA,A,3,65,87,66,78,,,,,,,,,4.45,2.23,3.86*14
$GPGSV,1,1,03,02,29,067,,20,49,065,,26,16,319,*46
$GLGSV,3,1,10,65,42,098,12,66,11,157,19,72,28,041,,78,24,222,23*6A
$GLGSV,3,2,10,79,39,282,,80,13,338,,81,44,300,,82,02,277,*6B
$GLGSV,3,3,10,87,24,075,20,88,60,039,*61
$GNGLL,4623.56625,N,11658.40128,W,174821.00,A,A*69
$GNRMC,174822.00,A,4623.56664,N,11658.40202,W,1.006,,050821,,,A*74
$GNVTG,,T,,M,1.006,N,1.864,K,A*31
$GNGGA,174822.00,4623.56664,N,11658.40202,W,1,04,2.23,438.0,M,-18.2,M,,*7F
$GNGSA,A,3,,,,,,,,,,,,,4.45,2.23,3.86*17
$GNGSA,A,3,65,87,66,78,,,,,,,,,4.45,2.23,3.86*14
$GPGSV,1,1,03,02,29,067,,20,49,065,,26,16,319,*46
$GLGSV,3,1,10,65,42,098,14,66,11,157,20,72,28,041,,78,24,222,22*67
$GLGSV,3,2,10,79,39,282,,80,13,338,,81,44,300,,82,02,277,*6B
$GLGSV,3,3,10,87,24,075,20,88,60,039,*61
$GNGLL,4623.56664,N,11658.40202,W,174822.00,A,A*64
$GNRMC,174823.00,A,4623.56667,N,11658.40262,W,1.281,,050821,,,A*7D
$GNVTG,,T,,M,1.281,N,2.372,K,A*33
$GNGGA,174823.00,4623.56667,N,11658.40262,W,1,04,2.23,437.9,M,-18.2,M,,*7D
$GNGSA,A,3,,,,,,,,,,,,,4.45,2.23,3.86*17
$GNGSA,A,3,65,87,66,78,,,,,,,,,4.45,2.23,3.86*14
$GPGSV,1,1,03,02,29,067,,20,49,065,,26,16,319,*46
$GLGSV,3,1,10,65,42,098,15,66,11,157,20,72,28,041,,78,24,222,20*64
$GLGSV,3,2,10,79,39,282,,80,13,338,,81,44,300,,82,02,277,*6B
$GLGSV,3,3,10,87,24,075,20,88,60,039,*61
$GNGLL,4623.56667,N,11658.40262,W,174823.00,A,A*60
$GNRMC,174824.00,A,4623.56627,N,11658.40290,W,1.348,,050821,,,A*77
$GNVTG,,T,,M,1.348,N,2.497,K,A*3B
$GNGGA,174824.00,4623.56627,N,11658.40290,W,1,04,2.23,437.2,M,-18.2,M,,*78
$GNGSA,A,3,,,,,,,,,,,,,4.45,2.23,3.86*17
$GNGSA,A,3,65,87,66,78,,,,,,,,,4.45,2.23,3.86*14
$GPGSV,1,1,03,02,29,067,,20,49,065,,26,16,319,*46
$GLGSV,3,1,10,65,42,098,13,66,11,157,20,72,28,041,,78,24,222,19*68
$GLGSV,3,2,10,79,39,282,,80,13,338,,81,44,300,,82,02,277,*6B
$GLGSV,3,3,10,87,24,075,20,88,60,039,*61
$GNGLL,4623.56627,N,11658.40290,W,174824.00,A,A*6E
$GNRMC,174825.00,A,4623.56587,N,11658.40255,W,0.254,,050821,,,A*7B
$GNVTG,,T,,M,0.254,N,0.470,K,A*3D
$GNGGA,174825.00,4623.56587,N,11658.40255,W,1,04,2.23,436.4,M,-18.2,M,,*7E
$GNGSA,A,3,,,,,,,,,,,,,4.45,2.23,3.86*17
$GNGSA,A,3,65,87,66,78,,,,,,,,,4.45,2.23,3.86*14
$GPGSV,1,1,03,02,29,067,,20,49,065,,26,16,319,*46
$GLGSV,3,1,10,65,42,098,12,66,11,157,19,72,28,041,,78,24,222,19*63
$GLGSV,3,2,10,79,39,282,,80,13,338,,81,44,300,,82,02,277,*6B
$GLGSV,3,3,10,87,24,075,20,88,60,039,*61
$GNGLL,4623.56587,N,11658.40255,W,174825.00,A,A*6F
$GNRMC,174826.00,A,4623.56641,N,11658.40261,W,0.736,,050821,,,A*77
$GNVTG,,T,,M,0.736,N,1.363,K,A*38
$GNGGA,174826.00,4623.56641,N,11658.40261,W,1,03,1.93,436.1,M,-18.2,M,,*79
$GNGSA,A,2,,,,,,,,,,,,,2.18,1.93,1.00*1C
$GNGSA,A,2,87,66,78,,,,,,,,,,2.18,1.93,1.00*1C
$GPGSV,1,1,03,02,29,067,,20,49,065,,26,16,319,*46
$GLGSV,3,1,10,65,42,098,09,66,11,157,19,72,28,041,,78,24,222,19*69
$GLGSV,3,2,10,79,39,282,,80,13,338,,81,44,300,,82,02,277,*6B
$GLGSV,3,3,10,87,24,075,20,88,60,039,*61
$GNGLL,4623.56641,N,11658.40261,W,174826.00,A,A*62
$GNRMC,174827.00,A,4623.56631,N,11658.40284,W,0.741,,050821,,,A*7A
$GNVTG,,T,,M,0.741,N,1.371,K,A*3B
$GNGGA,174827.00,4623.56631,N,11658.40284,W,1,03,1.93,435.8,M,-18.2,M,,*7E
$GNGSA,A,2,,,,,,,,,,,,,2.18,1.93,1.00*1C
$GNGSA,A,2,87,66,78,,,,,,,,,,2.18,1.93,1.00*1C
$GPGSV,1,1,03,02,29,067,,20,49,065,,26,16,319,*46
$GLGSV,3,1,10,65,42,097,08,66,11,157,19,72,28,041,,78,24,222,18*66
$GLGSV,3,2,10,79,39,282,,80,13,338,,81,44,300,,82,02,277,*6B
$GLGSV,3,3,10,87,24,075,20,88,60,039,*61
$GNGLL,4623.56631,N,11658.40284,W,174827.00,A,A*6F
$GNRMC,174828.00,A,4623.56574,N,11658.40300,W,1.316,,050821,,,A*7D
$GNVTG,,T,,M,1.316,N,2.437,K,A*3A
$GNGGA,174828.00,4623.56574,N,11658.40300,W,1,04,2.22,435.7,M,-18.2,M,,*7F
$GNGSA,A,3,,,,,,,,,,,,,4.45,2.22,3.86*16
$GNGSA,A,3,65,87,66,78,,,,,,,,,4.45,2.22,3.86*15
$GPGSV,1,1,03,02,29,067,,20,49,065,,26,16,319,*46
$GLGSV,3,1,10,65,42,097,12,66,11,157,17,72,28,041,,78,24,222,18*63
$GLGSV,3,2,10,79,39,282,,80,13,338,,81,44,300,,82,02,277,*6B
$GLGSV,3,3,10,87,24,075,21,88,60,039,*60
$GNGLL,4623.56574,N,11658.40300,W,174828.00,A,A*6F
$GNRMC,174829.00,A,4623.56605,N,11658.40320,W,0.136,,050821,,,A*7A
$GNVTG,,T,,M,0.136,N,0.252,K,A*3C
$GNGGA,174829.00,4623.56605,N,11658.40320,W,1,04,2.22,435.1,M,-18.2,M,,*7F
$GNGSA,A,3,,,,,,,,,,,,,4.45,2.22,3.86*16
$GNGSA,A,3,65,87,66,78,,,,,,,,,4.45,2.22,3.86*15
$GPGSV,1,1,03,02,29,067,,20,49,065,,26,16,319,*46
$GLGSV,3,1,10,65,42,097,14,66,11,157,17,72,28,041,,78,24,222,16*6B
$GLGSV,3,2,10,79,39,282,,80,13,338,,81,44,300,,82,02,277,*6B
$GLGSV,3,3,10,87,24,075,21,88,60,039,*60
$GNGLL,4623.56605,N,11658.40320,W,174829.00,A,A*69
$GNRMC,174830.00,A,4623.56601,N,11658.40291,W,0.780,,050821,,,A*76
$GNVTG,,T,,M,0.780,N,1.444,K,A*37
$GNGGA,174830.00,4623.56601,N,11658.40291,W,1,04,2.22,434.8,M,-18.2,M,,*70
$GNGSA,A,3,,,,,,,,,,,,,4.45,2.22,3.85*15
$GNGSA,A,3,65,87,66,78,,,,,,,,,4.45,2.22,3.85*16
$GPGSV,1,1,03,02,29,067,,20,49,065,,26,16,319,*46
$GLGSV,3,1,10,65,42,097,12,66,11,157,17,72,28,041,,78,24,222,15*6E
$GLGSV,3,2,10,79,39,282,,80,13,338,,81,44,300,,82,02,277,*6B
$GLGSV,3,3,10,87,24,075,22,88,60,039,*63
$GNGLL,4623.56601,N,11658.40291,W,174830.00,A,A*6E
$GNRMC,174831.00,A,4623.56621,N,11658.40345,W,0.144,,050821,,,A*73
$GNVTG,,T,,M,0.144,N,0.267,K,A*3F
$GNGGA,174831.00,4623.56621,N,11658.40345,W,1,04,2.22,434.3,M,-18.2,M,,*70
$GNGSA,A,3,,,,,,,,,,,,,4.45,2.22,3.85*15
$GNGSA,A,3,65,87,66,78,,,,,,,,,4.45,2.22,3.85*16
$GPGSV,1,1,03,02,29,067,,20,49,065,,26,16,319,*46
$GLGSV,3,1,10,65,42,097,12,66,11,157,17,72,28,041,,78,24,222,15*6E
$GLGSV,3,2,10,79,39,282,,80,13,338,,81,44,300,,82,02,277,*6B
$GLGSV,3,3,10,87,24,075,23,88,60,039,*62
$GNGLL,4623.56621,N,11658.40345,W,174831.00,A,A*65
$GNRMC,174832.00,A,4623.56644,N,11658.40445,W,1.547,,050821,,,A*72
$GNVTG,,T,,M,1.547,N,2.866,K,A*30
$GNGGA,174832.00,4623.56644,N,11658.40445,W,1,04,2.22,433.8,M,-18.2,M,,*7B
$GNGSA,A,3,,,,,,,,,,,,,4.45,2.22,3.85*15
$GNGSA,A,3,65,87,66,78,,,,,,,,,4.45,2.22,3.85*16
$GPGSV,1,1,03,02,29,067,,20,49,065,,26,16,319,*46
$GLGSV,3,1,10,65,42,097,13,66,11,157,18,72,28,041,,78,24,222,16*63
$GLGSV,3,2,10,79,39,282,,80,13,338,,81,44,300,,82,02,277,*6B
$GLGSV,3,3,10,87,24,075,22,88,60,039,*63
$GNGLL,4623.56644,N,11658.40445,W,174832.00,A,A*62
$GNRMC,174833.00,A,4623.56649,N,11658.40493,W,1.960,,050821,,,A*7C
$GNVTG,,T,,M,1.960,N,3.631,K,A*34
$GNGGA,174833.00,4623.56649,N,11658.40493,W,1,04,2.22,433.3,M,-18.2,M,,*77
$GNGSA,A,3,,,,,,,,,,,,,4.45,2.22,3.85*15
$GNGSA,A,3,65,87,66,78,,,,,,,,,4.45,2.22,3.85*16
$GPGSV,1,1,03,02,29,067,,20,49,065,,26,16,319,*46
$GLGSV,3,1,10,65,42,097,14,66,11,157,18,72,28,041,,78,24,222,17*65
$GLGSV,3,2,10,79,39,282,,80,13,338,,81,44,300,,82,02,277,*6B
$GLGSV,3,3,10,87,24,075,22,88,60,039,*63
$GNGLL,4623.56649,N,11658.40493,W,174833.00,A,A*65
$GNRMC,174834.00,A,4623.56634,N,11658.40464,W,1.154,,050821,,,A*76
$GNVTG,,T,,M,1.154,N,2.137,K,A*3B
$GNGGA,174834.00,4623.56634,N,11658.40464,W,1,04,2.22,433.0,M,-18.2,M,,*71
$GNGSA,A,3,,,,,,,,,,,,,4.45,2.22,3.85*15
$GNGSA,A,3,65,87,66,78,,,,,,,,,4.45,2.22,3.85*16
$GPGSV,1,1,03,02,29,067,,20,49,065,,26,16,319,*46
$GLGSV,3,1,10,65,42,097,14,66,11,157,18,72,28,040,,78,24,222,17*64
$GLGSV,3,2,10,79,39,282,,80,13,338,,81,44,300,,82,02,277,*6B
$GLGSV,3,3,10,87,24,075,22,88,60,039,*63
$GNGLL,4623.56634,N,11658.40464,W,174834.00,A,A*60
$GNRMC,174835.00,A,4623.56574,N,11658.40401,W,0.277,,050821,,,A*70
$GNVTG,,T,,M,0.277,N,0.514,K,A*3F
$GNGGA,174835.00,4623.56574,N,11658.40401,W,1,04,2.22,432.9,M,-18.2,M,,*7C
$GNGSA,A,3,,,,,,,,,,,,,4.45,2.22,3.85*15
$GNGSA,A,3,65,87,66,78,,,,,,,,,4.45,2.22,3.85*16
$GPGSV,1,1,03,02,29,067,,20,49,065,,26,16,319,*46
$GLGSV,3,1,10,65,42,097,13,66,11,157,17,72,28,040,,78,24,222,19*62
$GLGSV,3,2,10,79,39,282,,80,13,338,,81,44,300,,82,02,277,*6B
$GLGSV,3,3,10,87,24,075,22,88,60,039,*63
$GNGLL,4623.56574,N,11658.40401,W,174835.00,A,A*65
$GNRMC,174836.00,A,4623.56635,N,11658.40453,W,2.075,,050821,,,A*70
$GNVTG,,T,,M,2.075,N,3.844,K,A*36
$GNGGA,174836.00,4623.56635,N,11658.40453,W,1,04,2.22,432.6,M,-18.2,M,,*71
$GNGSA,A,3,,,,,,,,,,,,,4.45,2.22,3.85*15
$GNGSA,A,3,65,87,66,78,,,,,,,,,4.45,2.22,3.85*16
$GPGSV,1,1,03,02,29,067,,20,49,065,,26,16,319,*46
$GLGSV,3,1,10,65,42,097,12,66,11,157,17,72,28,040,,78,24,222,19*63
$GLGSV,3,2,10,79,39,282,,80,13,338,,81,44,300,,82,02,277,*6B
$GLGSV,3,3,10,87,24,075,22,88,60,039,*63
$GNGLL,4623.56635,N,11658.40453,W,174836.00,A,A*67
$GNRMC,174837.00,A,4623.56633,N,11658.40437,W,1.058,,050821,,,A*79
$GNVTG,,T,,M,1.058,N,1.959,K,A*35
$GNGGA,174837.00,4623.56633,N,11658.40437,W,1,04,2.22,432.3,M,-18.2,M,,*71
$GNGSA,A,3,,,,,,,,,,,,,4.45,2.22,3.85*15
$GNGSA,A,3,65,87,66,78,,,,,,,,,4.45,2.22,3.85*16
$GPGSV,1,1,03,02,29,067,,20,49,065,,26,16,319,*46
$GLGSV,3,1,10,65,42,097,11,66,11,157,17,72,28,040,,78,24,222,20*6A
$GLGSV,3,2,10,79,39,282,,80,13,338,,81,44,300,,82,02,277,*6B
$GLGSV,3,3,10,87,24,075,22,88,60,039,*63
$GNGLL,4623.56633,N,11658.40437,W,174837.00,A,A*62
$GNRMC,174838.00,A,4623.56691,N,11658.40462,W,2.142,,050821,,,A*77
$GNVTG,,T,,M,2.142,N,3.967,K,A*33
$GNGGA,174838.00,4623.56691,N,11658.40462,W,1,04,2.22,432.1,M,-18.2,M,,*74
$GNGSA,A,3,,,,,,,,,,,,,4.45,2.22,3.85*15
$GNGSA,A,3,65,87,66,78,,,,,,,,,4.45,2.22,3.85*16
$GPGSV,1,1,03,02,29,067,,20,49,065,,26,16,319,*46
$GLGSV,3,1,10,65,42,097,11,66,11,157,16,72,28,040,,78,24,222,20*6B
$GLGSV,3,2,10,79,39,282,,80,13,338,,81,44,300,,82,02,277,*6B
$GLGSV,3,3,10,87,24,075,22,88,60,039,*63
$GNGLL,4623.56691,N,11658.40462,W,174838.00,A,A*65
$GNRMC,174839.00,A,4623.56601,N,11658.40389,W,0.234,,050821,,,A*7D
$GNVTG,,T,,M,0.234,N,0.433,K,A*3C
$GNGGA,174839.00,4623.56601,N,11658.40389,W,1,04,2.22,431.3,M,-18.2,M,,*7F
$GNGSA,A,3,,,,,,,,,,,,,4.45,2.22,3.85*15
$GNGSA,A,3,65,87,66,78,,,,,,,,,4.45,2.22,3.85*16
$GPGSV,1,1,03,02,29,067,,20,49,065,,26,16,319,*46
$GLGSV,3,1,10,65,42,097,13,66,11,157,16,72,28,040,,78,24,222,21*68
$GLGSV,3,2,10,79,39,282,,80,13,338,,81,44,300,,82,02,277,*6B
$GLGSV,3,3,10,87,24,075,22,88,60,039,*63
$GNGLL,4623.56601,N,11658.40389,W,174839.00,A,A*6F
$GNRMC,174840.00,A,4623.56588,N,11658.40355,W,0.564,,050821,,,A*72
$GNVTG,,T,,M,0.564,N,1.045,K,A*3A
$GNGGA,174840.00,4623.56588,N,11658.40355,W,1,04,2.22,430.7,M,-18.2,M,,*77
$GNGSA,A,3,,,,,,,,,,,,,4.45,2.22,3.85*15
$GNGSA,A,3,65,87,66,78,,,,,,,,,4.45,2.22,3.85*16
$GPGSV,1,1,03,02,29,067,,20,49,065,,26,16,319,*46
$GLGSV,3,1,10,65,42,097,12,66,11,157,16,72,28,040,,78,23,222,21*6E
$GLGSV,3,2,10,79,39,282,,80,13,338,,81,44,300,,82,02,277,*6B
$GLGSV,3,3,10,87,24,075,21,88,60,039,*60
$GNGLL,4623.56588,N,11658.40355,W,174840.00,A,A*62
$GNRMC,174841.00,A,4623.56611,N,11658.40410,W,0.629,,050821,,,A*7C
$GNVTG,,T,,M,0.629,N,1.165,K,A*33
$GNGGA,174841.00,4623.56611,N,11658.40410,W,1,03,1.94,431.3,M,-18.2,M,,*7F
$GNGSA,A,2,,,,,,,,,,,,,2.18,1.94,1.00*1B
$GNGSA,A,2,87,66,78,,,,,,,,,,2.18,1.94,1.00*1B
$GPGSV,1,1,03,02,29,067,,20,49,065,,26,16,319,*46
$GLGSV,3,1,10,65,42,097,10,66,11,157,17,72,28,040,,78,23,222,21*6D
$GLGSV,3,2,10,79,39,282,,80,13,338,,81,44,300,,82,02,277,*6B
$GLGSV,3,3,10,87,24,075,21,88,60,039,*60
$GNGLL,4623.56611,N,11658.40410,W,174841.00,A,A*66
$GNRMC,174842.00,A,4623.56650,N,11658.40421,W,0.511,,050821,,,A*70
$GNVTG,,T,,M,0.511,N,0.947,K,A*32
$GNGGA,174842.00,4623.56650,N,11658.40421,W,1,03,1.94,430.9,M,-18.2,M,,*70
$GNGSA,A,2,,,,,,,,,,,,,2.18,1.94,1.00*1B
$GNGSA,A,2,87,66,78,,,,,,,,,,2.18,1.94,1.00*1B
$GPGSV,1,1,03,02,29,067,,20,49,065,,26,16,319,*46
$GLGSV,3,1,10,65,42,097,08,66,11,157,17,72,28,040,,78,23,222,20*65
$GLGSV,3,2,10,79,39,282,,80,13,338,,81,44,300,,82,02,277,*6B
$GLGSV,3,3,10,87,24,075,22,88,60,039,*63
$GNGLL,4623.56650,N,11658.40421,W,174842.00,A,A*62
$GNRMC,174843.00,A,4623.56628,N,11658.40437,W,0.715,,050821,,,A*7F
$GNVTG,,T,,M,0.715,N,1.323,K,A*3D
$GNGGA,174843.00,4623.56628,N,11658.40437,W,1,04,2.22,431.0,M,-18.2,M,,*78
$GNGSA,A,3,,,,,,,,,,,,,4.45,2.22,3.85*15
$GNGSA,A,3,65,87,66,78,,,,,,,,,4.45,2.22,3.85*16
$GPGSV,1,1,03,02,29,067,,20,49,065,,26,16,319,*46
$GLGSV,3,1,10,65,42,097,10,66,11,157,17,72,28,040,,78,23,222,19*66
$GLGSV,3,2,10,79,39,282,,80,13,338,,81,44,301,,82,02,277,*6A
$GLGSV,3,3,10,87,24,075,21,88,60,039,*60
$GNGLL,4623.56628,N,11658.40437,W,174843.00,A,A*6B
$GNRMC,174844.00,A,4623.56687,N,11658.40493,W,1.460,,050821,,,A*73
$GNVTG,,T,,M,1.460,N,2.704,K,A*3F
$GNGGA,174844.00,4623.56687,N,11658.40493,W,1,04,2.22,431.1,M,-18.2,M,,*75
$GNGSA,A,3,,,,,,,,,,,,,4.45,2.22,3.85*15
$GNGSA,A,3,65,87,66,78,,,,,,,,,4.45,2.22,3.85*16
$GPGSV,1,1,03,02,29,067,,20,49,065,,26,16,319,*46
$GLGSV,3,1,10,65,42,097,12,66,11,157,17,72,28,040,,78,23,222,19*64
$GLGSV,3,2,10,79,39,282,,80,13,338,,81,44,301,,82,02,277,*6A
$GLGSV,3,3,10,87,24,075,21,88,60,039,*60
$GNGLL,4623.56687,N,11658.40493,W,174844.00,A,A*67
$GNRMC,174845.00,A,4623.56718,N,11658.40528,W,1.479,,050821,,,A*7C
$GNVTG,,T,,M,1.479,N,2.739,K,A*39
$GNGGA,174845.00,4623.56718,N,11658.40528,W,1,04,2.22,431.1,M,-18.2,M,,*72
$GNGSA,A,3,,,,,,,,,,,,,4.45,2.22,3.85*15
$GNGSA,A,3,65,87,66,78,,,,,,,,,4.45,2.22,3.85*16
$GPGSV,1,1,03,02,29,067,,20,49,065,,26,16,319,*46
$GLGSV,3,1,10,65,42,097,16,66,11,157,17,72,28,040,,78,23,222,18*61
$GLGSV,3,2,10,79,39,282,,80,13,338,,81,44,301,,82,02,277,*6A
$GLGSV,3,3,10,87,24,075,21,88,60,039,*60
$GNGLL,4623.56718,N,11658.40528,W,174845.00,A,A*60
$GNRMC,174846.00,A,4623.56781,N,11658.40609,W,2.429,,050821,,,A*79
$GNVTG,,T,,M,2.429,N,4.498,K,A*31
$GNGGA,174846.00,4623.56781,N,11658.40609,W,1,04,2.22,431.1,M,-18.2,M,,*71
$GNGSA,A,3,,,,,,,,,,,,,4.45,2.22,3.85*15
$GNGSA,A,3,65,87,66,78,,,,,,,,,4.45,2.22,3.85*16
$GPGSV,1,1,03,02,29,067,,20,49,065,,26,16,319,*46
$GLGSV,3,1,10,65,42,097,12,66,11,157,17,72,28,040,,78,23,222,17*6A
$GLGSV,3,2,10,79,39,282,,80,13,338,,81,44,301,,82,02,277,*6A
$GLGSV,3,3,10,87,24,075,22,88,60,039,*63
$GNGLL,4623.56781,N,11658.40609,W,174846.00,A,A*63
$GNRMC,174847.00,A,4623.56793,N,11658.40682,W,1.321,,050821,,,A*74
$GNVTG,,T,,M,1.321,N,2.446,K,A*38
$GNGGA,174847.00,4623.56793,N,11658.40682,W,1,04,2.22,430.6,M,-18.2,M,,*76
$GNGSA,A,3,,,,,,,,,,,,,4.45,2.22,3.85*15
$GNGSA,A,3,65,87,66,78,,,,,,,,,4.45,2.22,3.85*16
$GPGSV,1,1,03,02,29,067,,20,49,065,,26,16,319,*46
$GLGSV,3,1,10,65,42,097,11,66,11,157,18,72,28,040,,78,23,222,16*67
$GLGSV,3,2,10,79,39,282,,80,13,338,,81,44,301,,82,02,277,*6A
$GLGSV,3,3,10,87,24,075,22,88,60,039,*63
$GNGLL,4623.56793,N,11658.40682,W,174847.00,A,A*62
$GNRMC,174848.00,A,4623.56762,N,11658.40669,W,1.095,,050821,,,A*7C
$GNVTG,,T,,M,1.095,N,2.027,K,A*37
$GNGGA,174848.00,4623.56762,N,11658.40669,W,1,04,2.22,430.6,M,-18.2,M,,*72
$GNGSA,A,3,,,,,,,,,,,,,4.45,2.22,3.85*15
$GNGSA,A,3,65,87,66,78,,,,,,,,,4.45,2.22,3.85*16
$GPGSV,1,1,03,02,29,067,,20,49,065,,26,16,319,*46
$GLGSV,3,1,10,65,42,097,15,66,11,157,18,72,28,040,,78,23,222,15*60
$GLGSV,3,2,10,79,39,282,,80,13,338,,81,44,301,,82,02,277,*6A
$GLGSV,3,3,10,87,24,075,22,88,60,039,*63
$GNGLL,4623.56762,N,11658.40669,W,174848.00,A,A*66
$GNRMC,174849.00,A,4623.56729,N,11658.40696,W,2.141,,050821,,,A*79
$GNVTG,,T,,M,2.141,N,3.964,K,A*33
$GNGGA,174849.00,4623.56729,N,11658.40696,W,1,04,2.22,430.6,M,-18.2,M,,*7C
$GNGSA,A,3,,,,,,,,,,,,,4.45,2.22,3.85*15
$GNGSA,A,3,65,87,66,78,,,,,,,,,4.45,2.22,3.85*16
$GPGSV,1,1,03,02,29,067,,20,49,065,,26,16,319,*46
$GLGSV,3,1,10,65,42,097,16,66,11,157,19,72,28,040,,78,23,222,13*64
$GLGSV,3,2,10,79,39,282,,80,13,338,,81,44,301,,82,02,277,*6A
$GLGSV,3,3,10,87,24,075,21,88,60,039,*60
$GNGLL,4623.56729,N,11658.40696,W,174849.00,A,A*68
$GNRMC,174850.00,A,4623.56815,N,11658.40780,W,1.289,,050821,,,A*73
$GNVTG,,T,,M,1.289,N,2.387,K,A*31
$GNGGA,174850.00,4623.56815,N,11658.40780,W,1,04,2.22,430.7,M,-18.2,M,,*73
$GNGSA,A,3,,,,,,,,,,,,,4.45,2.22,3.85*15
$GNGSA,A,3,65,87,66,78,,,,,,,,,4.45,2.22,3.85*16
$GPGSV,1,1,03,02,29,067,,20,49,065,,26,16,319,*46
$GLGSV,3,1,10,65,42,097,11,66,11,157,19,72,28,040,,78,23,222,13*63
$GLGSV,3,2,10,79,39,282,,80,13,338,,81,44,301,,82,02,277,*6A
$GLGSV,3,3,10,87,24,075,22,88,59,039,*69
$GNGLL,4623.56815,N,11658.40780,W,174850.00,A,A*66
$GNRMC,174851.00,V,,,,,,,050821,,,N*63
$GNVTG,,,,,,,,,N*2E
$GNGGA,174851.00,,,,,0,03,99.99,,,,,,*75
$GNGSA,A,1,,,,,,,,,,,,,99.99,99.99,1.00*1F
$GNGSA,A,1,65,87,66,,,,,,,,,,99.99,99.99,1.00*13
$GPGSV,1,1,03,02,28,067,,20,49,065,,26,16,319,*47
$GLGSV,3,1,10,65,42,097,11,66,11,157,18,72,28,040,,78,23,222,10*61
$GLGSV,3,2,10,79,39,282,,80,13,338,,81,44,301,,82,02,277,*6A
$GLGSV,3,3,10,87,24,075,21,88,59,039,*6A
$GNGLL,,,,,174851.00,V,N*5A
$GNRMC,174852.00,A,4623.56851,N,11658.40836,W,0.412,,050821,,,A*76
$GNVTG,,T,,M,0.412,N,0.764,K,A*3F
$GNGGA,174852.00,4623.56851,N,11658.40836,W,1,04,2.22,430.5,M,-18.2,M,,*71
$GNGSA,A,3,,,,,,,,,,,,,4.45,2.22,3.85*15
$GNGSA,A,3,65,87,66,78,,,,,,,,,4.45,2.22,3.85*16
$GPGSV,1,1,03,02,28,067,,20,49,065,,26,16,319,*47
$GLGSV,3,1,10,65,42,097,12,66,11,157,18,72,28,040,,78,23,222,09*6A
$GLGSV,3,2,10,79,39,282,,80,13,338,,81,44,301,,82,02,277,*6A
$GLGSV,3,3,10,87,24,075,22,88,59,039,*69
$GNGLL,4623.56851,N,11658.40836,W,174852.00,A,A*66
$GNRMC,174853.00,A,4623.56831,N,11658.40824,W,0.533,,050821,,,A*70
$GNVTG,,T,,M,0.533,N,0.987,K,A*3E
$GNGGA,174853.00,4623.56831,N,11658.40824,W,1,04,2.22,431.1,M,-18.2,M,,*70
$GNGSA,A,3,,,,,,,,,,,,,4.45,2.22,3.85*15
$GNGSA,A,3,65,87,66,78,,,,,,,,,4.45,2.22,3.85*16
$GPGSV,1,1,03,02,28,067,,20,49,065,,26,16,319,*47
$GLGSV,3,1,10,65,42,097,09,66,11,157,18,72,28,040,,78,23,222,10*68
$GLGSV,3,2,10,79,39,282,,80,13,338,,81,44,301,,82,02,277,*6A
$GLGSV,3,3,10,87,24,075,22,88,59,039,*69
$GNGLL,4623.56831,N,11658.40824,W,174853.00,A,A*62
$GNRMC,174854.00,A,4623.56841,N,11658.40839,W,0.460,,050821,,,A*7B
$GNVTG,,T,,M,0.460,N,0.852,K,A*30
$GNGGA,174854.00,4623.56841,N,11658.40839,W,1,04,2.22,431.1,M,-18.2,M,,*7C
$GNGSA,A,3,,,,,,,,,,,,,4.44,2.22,3.85*14
$GNGSA,A,3,65,87,66,78,,,,,,,,,4.44,2.22,3.85*17
$GPGSV,1,1,03,02,28,067,06,20,49,065,,26,16,319,*41
$GLGSV,3,1,10,65,42,097,09,66,11,157,18,72,28,040,,78,23,222,10*68
$GLGSV,3,2,10,79,39,282,,80,13,338,,81,44,301,,82,02,277,*6A
$GLGSV,3,3,10,87,24,075,22,88,59,039,*69
$GNGLL,4623.56841,N,11658.40839,W,174854.00,A,A*6E
$GNRMC,174855.00,A,4623.56868,N,11658.40838,W,0.605,,050821,,,A*71
$GNVTG,,T,,M,0.605,N,1.120,K,A*3C
$GNGGA,174855.00,4623.56868,N,11658.40838,W,1,04,2.22,431.1,M,-18.2,M,,*77
$GNGSA,A,3,,,,,,,,,,,,,4.44,2.22,3.85*14
$GNGSA,A,3,65,87,66,78,,,,,,,,,4.44,2.22,3.85*17
$GPGSV,1,1,03,02,28,067,07,20,49,065,,26,16,319,*40
$GLGSV,3,1,10,65,42,097,10,66,11,157,19,72,28,040,,78,23,222,11*60
$GLGSV,3,2,10,79,39,282,,80,13,338,,81,44,301,,82,02,277,*6A
$GLGSV,3,3,10,87,24,075,22,88,59,039,*69
$GNGLL,4623.56868,N,11658.40838,W,174855.00,A,A*65
$GNRMC,174856.00,A,4623.56940,N,11658.40790,W,1.132,,050821,,,A*76
$GNVTG,,T,,M,1.132,N,2.097,K,A*30
$GNGGA,174856.00,4623.56940,N,11658.40790,W,1,05,1.94,431.6,M,-18.2,M,,*7A
$GNGSA,A,3,02,,,,,,,,,,,,4.14,1.94,3.66*10
$GNGSA,A,3,65,87,66,78,,,,,,,,,4.14,1.94,3.66*11
$GPGSV,1,1,03,02,28,067,08,20,49,065,,26,16,319,*4F
$GLGSV,3,1,10,65,42,097,08,66,11,157,20,72,28,040,,78,23,222,15*67
$GLGSV,3,2,10,79,39,282,,80,13,338,,81,44,301,,82,02,277,*6A
$GLGSV,3,3,10,87,24,075,22,88,59,039,*69
$GNGLL,4623.56940,N,11658.40790,W,174856.00,A,A*60
$GNRMC,174857.00,A,4623.56972,N,11658.40824,W,0.736,,050821,,,A*75
$GNVTG,,T,,M,0.736,N,1.363,K,A*38
$GNGGA,174857.00,4623.56972,N,11658.40824,W,1,04,2.22,431.6,M,-18.2,M,,*75
$GNGSA,A,3,,,,,,,,,,,,,4.44,2.22,3.85*14
$GNGSA,A,3,65,87,66,78,,,,,,,,,4.44,2.22,3.85*17
$GPGSV,1,1,03,02,28,067,13,20,49,065,,26,16,319,*45
$GLGSV,3,1,10,65,42,097,09,66,11,157,20,72,28,040,,78,23,222,15*66
$GLGSV,3,2,10,79,39,282,,80,13,338,,81,44,301,,82,02,277,*6A
$GLGSV,3,3,10,87,24,075,22,88,59,039,*69
$GNGLL,4623.56972,N,11658.40824,W,174857.00,A,A*60
$GNRMC,174858.00,A,4623.57028,N,11658.40901,W,1.079,,050821,,,A*76
$GNVTG,,T,,M,1.079,N,1.997,K,A*34
$GNGGA,174858.00,4623.57028,N,11658.40901,W,1,04,2.22,431.6,M,-18.2,M,,*7B
$GNGSA,A,3,,,,,,,,,,,,,4.44,2.22,3.85*14
$GNGSA,A,3,65,87,66,78,,,,,,,,,4.44,2.22,3.85*17
$GPGSV,1,1,03,02,28,067,10,20,49,065,,26,16,319,*46
$GLGSV,3,1,10,65,42,097,08,66,11,157,21,72,28,040,,78,23,222,17*64
$GLGSV,3,2,10,79,39,282,,80,13,338,,81,44,301,,82,02,277,*6A
$GLGSV,3,3,10,87,24,075,23,88,59,039,*68
$GNGLL,4623.57028,N,11658.40901,W,174858.00,A,A*6E
$GNRMC,174859.00,A,4623.57020,N,11658.40829,W,0.716,,050821,,,A*7B
$GNVTG,,T,,M,0.716,N,1.327,K,A*3A
$GNGGA,174859.00,4623.57020,N,11658.40829,W,1,05,1.94,431.6,M,-18.2,M,,*76
$GNGSA,A,3,02,,,,,,,,,,,,4.14,1.94,3.66*10
$GNGSA,A,3,65,87,66,78,,,,,,,,,4.14,1.94,3.66*11
$GPGSV,1,1,03,02,28,067,12,20,49,065,,26,16,319,*44
$GLGSV,3,1,10,65,42,097,09,66,11,157,22,72,28,040,,78,23,222,15*64
$GLGSV,3,2,10,79,39,282,,80,13,338,,81,44,301,,82,02,277,*6A
$GLGSV,3,3,10,87,24,075,23,88,59,039,*68
$GNGLL,4623.57020,N,11658.40829,W,174859.00,A,A*6C
$GNRMC,174900.00,A,4623.57059,N,11658.40861,W,0.608,,050821,,,A*7A
$GNVTG,,T,,M,0.608,N,1.126,K,A*37
$GNGGA,174900.00,4623.57059,N,11658.40861,W,1,05,1.94,431.6,M,-18.2,M,,*79
$GNGSA,A,3,02,,,,,,,,,,,,4.14,1.94,3.66*10
$GNGSA,A,3,65,87,66,78,,,,,,,,,4.14,1.94,3.66*11
$GPGSV,1,1,03,02,28,067,10,20,49,065,,26,16,319,*46
$GLGSV,3,1,10,65,42,097,11,66,11,157,22,72,28,040,,78,23,222,18*60
$GLGSV,3,2,10,79,39,282,,80,13,338,,81,44,301,,82,02,277,*6A
$GLGSV,3,3,10,87,24,075,23,88,59,039,*68
$GNGLL,4623.57059,N,11658.40861,W,174900.00,A,A*63
$GNRMC,174901.00,A,4623.57095,N,11658.40903,W,0.606,,050821,,,A*70
$GNVTG,,T,,M,0.606,N,1.122,K,A*3D
$GNGGA,174901.00,4623.57095,N,11658.40903,W,1,05,1.94,431.6,M,-18.2,M,,*7D
$GNGSA,A,3,02,,,,,,,,,,,,4.14,1.94,3.66*10
$GNGSA,A,3,65,87,66,78,,,,,,,,,4.14,1.94,3.66*11
$GPGSV,1,1,03,02,28,067,09,20,49,065,,26,16,319,*4E
$GLGSV,3,1,10,65,42,097,14,66,11,157,22,72,28,040,,78,23,222,18*65
$GLGSV,3,2,10,79,39,282,,80,13,338,,81,44,301,,82,02,277,*6A
$GLGSV,3,3,10,87,24,075,23,88,59,039,*68
$GNGLL,4623.57095,N,11658.40903,W,174901.00,A,A*67
$GNRMC,174902.00,A,4623.57133,N,11658.40995,W,0.704,,050821,,,A*72
$GNVTG,,T,,M,0.704,N,1.303,K,A*3F
$GNGGA,174902.00,4623.57133,N,11658.40995,W,1,05,1.94,431.4,M,-18.2,M,,*7E
$GNGSA,A,3,02,,,,,,,,,,,,4.14,1.94,3.66*10
$GNGSA,A,3,65,87,66,78,,,,,,,,,4.14,1.94,3.66*11
$GPGSV,1,1,03,02,28,067,10,20,49,065,,26,16,319,*46
$GLGSV,3,1,10,65,42,097,08,66,11,157,23,72,28,040,,78,23,222,15*64
$GLGSV,3,2,10,79,39,282,,80,13,338,,81,44,301,,82,02,277,*6A
$GLGSV,3,3,10,87,24,075,22,88,59,039,*69
$GNGLL,4623.57133,N,11658.40995,W,174902.00,A,A*66
$GNRMC,174903.00,A,4623.57197,N,11658.40984,W,1.103,,050821,,,A*7D
$GNVTG,,T,,M,1.103,N,2.042,K,A*3A
$GNGGA,174903.00,4623.57197,N,11658.40984,W,1,05,1.94,431.3,M,-18.2,M,,*76
$GNGSA,A,3,02,,,,,,,,,,,,4.14,1.94,3.66*10
$GNGSA,A,3,65,87,66,78,,,,,,,,,4.14,1.94,3.66*11
$GPGSV,1,1,03,02,28,067,10,20,49,065,,26,16,319,*46
$GLGSV,3,1,10,65,42,097,11,66,11,157,23,72,28,040,,78,23,222,16*6F
$GLGSV,3,2,10,79,39,282,,80,13,338,,81,44,301,,82,02,277,*6A
$GLGSV,3,3,10,87,24,075,22,88,59,039,*69
$GNGLL,4623.57197,N,11658.40984,W,174903.00,A,A*69
$GNRMC,174904.00,A,4623.57181,N,11658.41075,W,0.750,,050821,,,A*7A
$GNVTG,,T,,M,0.750,N,1.389,K,A*3C
$GNGGA,174904.00,4623.57181,N,11658.41075,W,1,05,1.94,431.4,M,-18.2,M,,*77
$GNGSA,A,3,02,,,,,,,,,,,,4.14,1.94,3.66*10
$GNGSA,A,3,65,87,66,78,,,,,,,,,4.14,1.94,3.66*11
$GPGSV,1,1,03,02,28,067,10,20,49,065,,26,16,319,*46
$GLGSV,3,1,10,65,42,097,13,66,11,157,23,72,28,040,,78,23,222,16*6D
$GLGSV,3,2,10,79,39,282,,80,13,338,,81,44,301,,82,02,277,*6A
$GLGSV,3,3,10,87,24,075,22,88,59,039,*69
$GNGLL,4623.57181,N,11658.41075,W,174904.00,A,A*6F
$GNRMC,174905.00,A,4623.57230,N,11658.41032,W,0.736,,050821,,,A*71
$GNVTG,,T,,M,0.736,N,1.363,K,A*38
$GNGGA,174905.00,4623.57230,N,11658.41032,W,1,05,1.94,431.3,M,-18.2,M,,*7B
$GNGSA,A,3,02,,,,,,,,,,,,4.14,1.94,3.66*10
$GNGSA,A,3,65,87,66,78,,,,,,,,,4.14,1.94,3.66*11
$GPGSV,1,1,03,02,28,067,10,20,49,065,,26,16,319,*46
$GLGSV,3,1,10,65,42,097,10,66,11,157,24,72,28,040,,78,23,222,16*69
$GLGSV,3,2,10,79,39,282,,80,13,338,,81,44,301,,82,02,277,*6A
$GLGSV,3,3,10,87,24,075,23,88,59,039,*68
$GNGLL,4623.57230,N,11658.41032,W,174905.00,A,A*64
$GNRMC,174906.00,A,4623.57249,N,11658.40987,W,0.643,,050821,,,A*79
$GNVTG,,T,,M,0.643,N,1.192,K,A*37
$GNGGA,174906.00,4623.57249,N,11658.40987,W,1,03,1.94,431.3,M,-18.2,M,,*76
$GNGSA,A,2,,,,,,,,,,,,,2.18,1.94,1.00*1B
$GNGSA,A,2,87,66,78,,,,,,,,,,2.18,1.94,1.00*1B
$GPGSV,1,1,03,02,28,067,,20,49,065,,26,16,319,*47
$GLGSV,3,1,10,65,42,097,,66,11,157,25,72,28,040,,78,23,222,17*68
$GLGSV,3,2,10,79,39,282,,80,13,338,,81,44,301,,82,02,277,*6A
$GLGSV,3,3,10,87,24,075,24,88,59,039,*6F
$GNGLL,4623.57249,N,11658.40987,W,174906.00,A,A*6F
$GNRMC,174907.00,A,4623.57262,N,11658.40955,W,0.537,,050821,,,A*7E
$GNVTG,,T,,M,0.537,N,0.994,K,A*38
$GNGGA,174907.00,4623.57262,N,11658.40955,W,1,03,1.94,431.4,M,-18.2,M,,*76
$GNGSA,A,2,,,,,,,,,,,,,2.18,1.94,1.00*1B
$GNGSA,A,2,87,66,78,,,,,,,,,,2.18,1.94,1.00*1B
$GPGSV,1,1,03,02,28,067,,20,49,065,,26,16,319,*47
$GLGSV,3,1,10,65,42,097,,66,11,157,25,72,28,040,,78,23,222,16*69
$GLGSV,3,2,10,79,39,282,,80,13,338,,81,44,301,,82,02,277,*6A
$GLGSV,3,3,10,87,24,075,24,88,59,039,*6F
$GNGLL,4623.57262,N,11658.40955,W,174907.00,A,A*68
$GNRMC,174908.00,A,4623.57312,N,11658.41036,W,0.515,,050821,,,A*7A
$GNVTG,,T,,M,0.515,N,0.954,K,A*34
$GNGGA,174908.00,4623.57312,N,11658.41036,W,1,03,1.94,431.3,M,-18.2,M,,*75
$GNGSA,A,2,,,,,,,,,,,,,2.18,1.94,1.00*1B
$GNGSA,A,2,87,66,78,,,,,,,,,,2.18,1.94,1.00*1B
$GPGSV,1,1,03,02,28,067,,20,49,065,,26,16,319,*47
$GLGSV,3,1,10,65,42,097,,66,11,157,25,72,28,040,,78,23,222,16*69
$GLGSV,3,2,10,79,39,282,,80,13,338,,81,44,301,,82,02,277,*6A
$GLGSV,3,3,10,87,24,075,24,88,59,039,*6F
$GNGLL,4623.57312,N,11658.41036,W,174908.00,A,A*6C
$GNRMC,174909.00,A,4623.57309,N,11658.40951,W,0.421,,050821,,,A*7E
$GNVTG,,T,,M,0.421,N,0.779,K,A*33
$GNGGA,174909.00,4623.57309,N,11658.40951,W,1,03,1.94,431.4,M,-18.2,M,,*70
$GNGSA,A,2,,,,,,,,,,,,,2.18,1.94,1.00*1B
$GNGSA,A,2,87,66,78,,,,,,,,,,2.18,1.94,1.00*1B
$GPGSV,1,1,03,02,28,067,,20,49,065,,26,16,319,*47
$GLGSV,3,1,10,65,42,097,,66,11,157,25,72,28,040,,78,23,222,15*6A
$GLGSV,3,2,10,79,39,282,,80,13,338,,81,44,301,,82,02,277,*6A
$GLGSV,3,3,10,87,24,075,23,88,59,039,*68
$GNGLL,4623.57309,N,11658.40951,W,174909.00,A,A*6E
$GNRMC,174910.00,A,4623.57334,N,11658.40945,W,0.341,,050821,,,A*7C
$GNVTG,,T,,M,0.341,N,0.631,K,A*3F
$GNGGA,174910.00,4623.57334,N,11658.40945,W,1,03,1.94,431.4,M,-18.2,M,,*73
$GNGSA,A,2,,,,,,,,,,,,,2.18,1.94,1.00*1B
$GNGSA,A,2,87,66,78,,,,,,,,,,2.18,1.94,1.00*1B
$GPGSV,1,1,03,02,28,067,,20,49,065,,26,16,319,*47
$GLGSV,3,1,10,65,42,097,,66,11,157,25,72,28,040,,78,23,222,15*6A
$GLGSV,3,2,10,79,39,282,,80,13,338,,81,44,301,,82,02,277,*6A
$GLGSV,3,3,10,87,24,075,23,88,59,039,*68
$GNGLL,4623.57334,N,11658.40945,W,174910.00,A,A*6D
$GNRMC,174911.00,A,4623.57360,N,11658.40942,W,0.295,,050821,,,A*73
$GNVTG,,T,,M,0.295,N,0.547,K,A*35
$GNGGA,174911.00,4623.57360,N,11658.40942,W,1,03,1.94,431.4,M,-18.2,M,,*74
$GNGSA,A,2,,,,,,,,,,,,,2.18,1.94,1.00*1B
$GNGSA,A,2,87,66,78,,,,,,,,,,2.18,1.94,1.00*1B
$GPGSV,1,1,03,02,28,067,,20,49,065,,26,16,319,*47
$GLGSV,3,1,10,65,42,097,,66,11,157,25,72,28,040,,78,23,222,15*6A
$GLGSV,3,2,10,79,39,282,,80,13,338,,81,44,301,,82,02,277,*6A
$GLGSV,3,3,10,87,24,075,23,88,59,039,*68
$GNGLL,4623.57360,N,11658.40942,W,174911.00,A,A*6A
$GNRMC,174912.00,A,4623.57387,N,11658.40937,W,0.250,,050821,,,A*72
$GNVTG,,T,,M,0.250,N,0.463,K,A*3B
$GNGGA,174912.00,4623.57387,N,11658.40937,W,1,03,1.94,431.4,M,-18.2,M,,*7C
$GNGSA,A,2,,,,,,,,,,,,,2.18,1.94,1.00*1B
$GNGSA,A,2,87,66,78,,,,,,,,,,2.18,1.94,1.00*1B
$GPGSV,1,1,03,02,28,067,,20,49,065,,26,16,319,*47
$GLGSV,3,1,10,65,43,097,,66,11,157,25,72,28,040,,78,23,222,14*6A
$GLGSV,3,2,10,79,39,282,,80,13,338,,81,44,301,,82,02,277,*6A
$GLGSV,3,3,10,87,24,075,23,88,59,039,*68
$GNGLL,4623.57387,N,11658.40937,W,174912.00,A,A*62
$GNRMC,174913.00,A,4623.57464,N,11658.40835,W,1.489,,050821,,,A*79
$GNVTG,,T,,M,1.489,N,2.758,K,A*31
$GNGGA,174913.00,4623.57464,N,11658.40835,W,1,03,1.94,431.4,M,-18.2,M,,*74
$GNGSA,A,2,,,,,,,,,,,,,2.18,1.94,1.00*1B
$GNGSA,A,2,87,66,78,,,,,,,,,,2.18,1.94,1.00*1B
$GPGSV,1,1,03,02,28,067,,20,49,065,,26,16,319,*47
$GLGSV,3,1,10,65,43,097,,66,12,157,24,72,28,040,,78,23,222,12*6E
$GLGSV,3,2,10,79,39,282,,80,13,338,,81,44,301,,82,02,277,*6A
$GLGSV,3,3,10,87,24,075,23,88,59,039,*68
$GNGLL,4623.57464,N,11658.40835,W,174913.00,A,A*6A
$GNRMC,174914.00,V,,,,,,,050821,,,N*63
$GNVTG,,,,,,,,,N*2E
$GNGGA,174914.00,,,,,0,00,99.99,,,,,,*76
$GNGSA,A,1,,,,,,,,,,,,,99.99,99.99,99.99*2E
$GNGSA,A,1,,,,,,,,,,,,,99.99,99.99,99.99*2E
$GPGSV,1,1,03,02,28,067,03,20,49,065,,26,16,319,*44
$GLGSV,3,1,10,65,43,097,,66,12,157,24,72,28,040,,78,23,222,09*64
$GLGSV,3,2,10,79,39,282,,80,13,338,,81,44,301,,82,02,277,*6A
$GLGSV,3,3,10,87,24,075,24,88,59,039,*6F
$GNGLL,,,,,174914.00,V,N*5A
$GNRMC,174915.00,A,4623.57498,N,11658.40784,W,0.891,,050821,,,A*7D
$GNVTG,,T,,M,0.891,N,1.651,K,A*3E
$GNGGA,174915.00,4623.57498,N,11658.40784,W,1,03,1.94,431.4,M,-18.2,M,,*74
$GNGSA,A,2,,,,,,,,,,,,,2.18,1.94,1.00*1B
$GNGSA,A,2,87,66,78,,,,,,,,,,2.18,1.94,1.00*1B
$GPGSV,1,1,03,02,28,067,06,20,49,065,,26,16,319,*41
$GLGSV,3,1,10,65,43,097,,66,12,157,25,72,28,040,,78,23,222,08*64
$GLGSV,3,2,10,79,39,282,,80,13,338,,81,44,301,,82,02,277,*6A
$GLGSV,3,3,10,87,24,075,24,88,59,039,*6F
$GNGLL,4623.57498,N,11658.40784,W,174915.00,A,A*6A
$GNRMC,174916.00,A,4623.57479,N,11658.40774,W,0.529,,050821,,,A*70
$GNVTG,,T,,M,0.529,N,0.980,K,A*32
$GNGGA,174916.00,4623.57479,N,11658.40774,W,1,03,12.82,431.4,M,-18.2,M,,*42
$GNGSA,A,2,02,,,,,,,,,,,,12.86,12.82,1.00*1A
$GNGSA,A,2,87,66,,,,,,,,,,,12.86,12.82,1.00*17
$GPGSV,1,1,03,02,28,067,08,20,49,065,,26,16,319,*4F
$GLGSV,3,1,10,65,43,097,,66,12,157,24,72,28,040,,78,23,222,08*65
$GLGSV,3,2,10,79,39,282,,80,13,338,,81,44,301,,82,02,277,*6A
$GLGSV,3,3,10,87,24,075,25,88,59,039,*6E
$GNGLL,4623.57479,N,11658.40774,W,174916.00,A,A*69
$GNRMC,174917.00,V,,,,,,,050821,,,N*60
$GNVTG,,,,,,,,,N*2E
$GNGGA,174917.00,,,,,0,00,99.99,,,,,,*75
$GNGSA,A,1,,,,,,,,,,,,,99.99,99.99,99.99*2E
$GNGSA,A,1,,,,,,,,,,,,,99.99,99.99,99.99*2E
$GPGSV,1,1,03,02,28,067,,20,49,065,,26,16,319,*47
$GLGSV,3,1,10,65,43,097,,66,12,157,24,72,28,040,,78,23,222,*6D
$GLGSV,3,2,10,79,39,282,,80,13,338,,81,44,301,,82,02,277,*6A
$GLGSV,3,3,10,87,24,075,25,88,59,039,*6E
$GNGLL,,,,,174917.00,V,N*59
$GNRMC,174918.00,V,,,,,,,050821,,,N*6F
$GNVTG,,,,,,,,,N*2E
$GNGGA,174918.00,,,,,0,00,99.99,,,,,,*7A
$GNGSA,A,1,,,,,,,,,,,,,99.99,99.99,99.99*2E
$GNGSA,A,1,,,,,,,,,,,,,99.99,99.99,99.99*2E
$GPGSV,1,1,03,02,28,067,,20,49,065,,26,16,319,*47
$GLGSV,3,1,10,65,43,097,,66,12,157,24,72,28,040,,78,23,222,*6D
$GLGSV,3,2,10,79,39,282,,80,13,338,,81,44,301,,82,02,277,*6A
$GLGSV,3,3,10,87,24,075,24,88,59,039,*6F
$GNGLL,,,,,174918.00,V,N*56
$GNRMC,174919.00,V,,,,,,,050821,,,N*6E
$GNVTG,,,,,,,,,N*2E
$GNGGA,174919.00,,,,,0,00,99.99,,,,,,*7B
$GNGSA,A,1,,,,,,,,,,,,,99.99,99.99,99.99*2E
$GNGSA,A,1,,,,,,,,,,,,,99.99,99.99,99.99*2E
$GPGSV,1,1,03,02,28,067,,20,49,065,,26,16,319,*47
$GLGSV,3,1,10,65,43,097,,66,12,157,24,72,28,040,,78,23,222,*6D
$GLGSV,3,2,10,79,39,282,,80,13,338,,81,44,301,,82,02,277,*6A
$GLGSV,3,3,10,87,24,075,24,88,59,039,*6F
$GNGLL,,,,,174919.00,V,N*57
$GNRMC,174920.00,V,,,,,,,050821,,,N*64
$GNVTG,,,,,,,,,N*2E
$GNGGA,174920.00,,,,,0,00,99.99,,,,,,*71
$GNGSA,A,1,,,,,,,,,,,,,99.99,99.99,99.99*2E
$GNGSA,A,1,,,,,,,,,,,,,99.99,99.99,99.99*2E
$GPGSV,1,1,03,02,28,067,,20,49,065,,26,16,319,*47
$GLGSV,3,1,10,65,43,097,,66,12,157,24,72,28,040,,78,23,222,*6D
$GLGSV,3,2,10,79,39,282,,80,13,338,,81,44,301,,82,02,277,*6A
$GLGSV,3,3,10,87,24,075,24,88,59,039,*6F
$GNGLL,,,,,174920.00,V,N*5D
$GNRMC,174921.00,V,,,,,,,050821,,,N*65
$GNVTG,,,,,,,,,N*2E
$GNGGA,174921.00,,,,,0,00,99.99,,,,,,*70
$GNGSA,A,1,,,,,,,,,,,,,99.99,99.99,99.99*2E
$GNGSA,A,1,,,,,,,,,,,,,99.99,99.99,99.99*2E
$GPGSV,1,1,03,02,28,067,,20,49,065,,26,16,319,*47
$GLGSV,3,1,10,65,43,097,,66,12,157,23,72,28,040,,78,23,222,*6A
$GLGSV,3,2,10,79,39,282,,80,13,338,,81,44,301,,82,02,277,*6A
$GLGSV,3,3,10,87,24,075,24,88,59,039,*6F
$GNGLL,,,,,174921.00,V,N*5C
$GNRMC,174922.00,V,,,,,,,050821,,,N*66
$GNVTG,,,,,,,,,N*2E
$GNGGA,174922.00,,,,,0,00,99.99,,,,,,*73
$GNGSA,A,1,,,,,,,,,,,,,99.99,99.99,99.99*2E
$GNGSA,A,1,,,,,,,,,,,,,99.99,99.99,99.99*2E
$GPGSV,1,1,03,02,28,067,,20,49,065,,26,16,319,*47
$GLGSV,3,1,10,65,43,097,,66,12,157,23,72,28,040,,78,23,222,*6A
$GLGSV,3,2,10,79,39,282,,80,13,338,,81,44,301,,82,02,277,*6A
$GLGSV,3,3,10,87,24,075,24,88,59,039,*6F
$GNGLL,,,,,174922.00,V,N*5F
$GNRMC,174923.00,V,,,,,,,050821,,,N*67
$GNVTG,,,,,,,,,N*2E
$GNGGA,174923.00,,,,,0,00,99.99,,,,,,*72
$GNGSA,A,1,,,,,,,,,,,,,99.99,99.99,99.99*2E
$GNGSA,A,1,,,,,,,,,,,,,99.99,99.99,99.99*2E
$GPGSV,1,1,03,02,28,067,,20,49,065,,26,16,319,*47
$GLGSV,3,1,10,65,43,097,,66,12,157,23,72,28,040,,78,23,222,*6A
$GLGSV,3,2,10,79,39,282,,80,13,338,,81,44,301,,82,02,277,*6A
$GLGSV,3,3,10,87,24,075,24,88,59,039,*6F
$GNGLL,,,,,174923.00,V,N*5E
$GNRMC,174924.00,V,,,,,,,050821,,,N*60
$GNVTG,,,,,,,,,N*2E
$GNGGA,174924.00,,,,,0,00,99.99,,,,,,*75
$GNGSA,A,1,,,,,,,,,,,,,99.99,99.99,99.99*2E
$GNGSA,A,1,,,,,,,,,,,,,99.99,99.99,99.99*2E
$GPGSV,1,1,03,02,28,067,,20,49,065,,26,16,319,*47
$GLGSV,3,1,10,65,43,097,,66,12,157,23,72,28,040,,78,23,222,*6A
$GLGSV,3,2,10,79,39,282,,80,13,338,,81,44,301,,82,02,277,*6A
$GLGSV,3,3,10,87,24,075,25,88,59,039,*6E
$GNGLL,,,,,174924.00,V,N*59
$GNRMC,174925.00,V,,,,,,,050821,,,N*61
$GNVTG,,,,,,,,,N*2E
$GNGGA,174925.00,,,,,0,00,99.99,,,,,,*74
$GNGSA,A,1,,,,,,,,,,,,,99.99,99.99,99.99*2E
$GNGSA,A,1,,,,,,,,,,,,,99.99,99.99,99.99*2E
$GPGSV,1,1,03,02,28,067,,20,49,065,,26,16,319,*47
$GLGSV,3,1,10,65,43,097,,66,12,157,24,72,28,040,,78,23,222,*6D
$GLGSV,3,2,10,79,39,282,,80,13,338,,81,44,301,,82,02,277,*6A
$GLGSV,3,3,10,87,24,075,24,88,59,039,*6F
$GNGLL,,,,,174925.00,V,N*58
$GNRMC,174926.00,V,,,,,,,050821,,,N*62
$GNVTG,,,,,,,,,N*2E
$GNGGA,174926.00,,,,,0,00,99.99,,,,,,*77
$GNGSA,A,1,,,,,,,,,,,,,99.99,99.99,99.99*2E
$GNGSA,A,1,,,,,,,,,,,,,99.99,99.99,99.99*2E
$GPGSV,1,1,03,02,28,067,,20,49,065,,26,16,319,*47
$GLGSV,3,1,10,65,43,097,,66,12,157,24,72,28,040,,78,23,222,*6D
$GLGSV,3,2,10,79,39,281,,80,13,338,,81,44,301,,82,02,277,*69
$GLGSV,3,3,10,87,24,075,24,88,59,039,*6F
$GNGLL,,,,,174926.00,V,N*5B
$GNRMC,174927.00,V,,,,,,,050821,,,N*63
$GNVTG,,,,,,,,,N*2E
$GNGGA,174927.00,,,,,0,00,99.99,,,,,,*76
$GNGSA,A,1,,,,,,,,,,,,,99.99,99.99,99.99*2E
$GNGSA,A,1,,,,,,,,,,,,,99.99,99.99,99.99*2E
$GPGSV,1,1,03,02,28,067,,20,49,065,,26,16,319,*47
$GLGSV,3,1,10,65,43,097,,66,12,157,24,72,28,040,,78,23,222,*6D
$GLGSV,3,2,10,79,39,281,,80,13,338,,81,44,301,,82,02,277,*69
$GLGSV,3,3,10,87,24,075,25,88,59,039,*6E
$GNGLL,,,,,174927.00,V,N*5A
$GNRMC,174928.00,V,,,,,,,050821,,,N*6C
$GNVTG,,,,,,,,,N*2E
$GNGGA,174928.00,,,,,0,00,99.99,,,,,,*79
$GNGSA,A,1,,,,,,,,,,,,,99.99,99.99,99.99*2E
$GNGSA,A,1,,,,,,,,,,,,,99.99,99.99,99.99*2E
$GPGSV,1,1,03,02,28,067,,20,49,065,,26,16,319,*47
$GLGSV,3,1,10,65,43,097,,66,12,157,24,72,28,040,,78,23,222,17*6B
$GLGSV,3,2,10,79,39,281,,80,13,338,,81,44,301,,82,02,277,*69
$GLGSV,3,3,10,87,24,075,24,88,59,039,*6F
$GNGLL,,,,,174928.00,V,N*55
$GNRMC,174929.00,V,,,,,,,050821,,,N*6D
$GNVTG,,,,,,,,,N*2E
$GNGGA,174929.00,,,,,0,00,99.99,,,,,,*78
$GNGSA,A,1,,,,,,,,,,,,,99.99,99.99,99.99*2E
$GNGSA,A,1,,,,,,,,,,,,,99.99,99.99,99.99*2E
$GPGSV,1,1,03,02,28,067,,20,49,065,,26,16,319,*47
$GLGSV,3,1,10,65,43,097,,66,12,157,23,72,28,040,,78,23,222,16*6D
$GLGSV,3,2,10,79,39,281,,80,13,338,,81,44,301,,82,02,277,*69
$GLGSV,3,3,10,87,24,075,25,88,59,039,*6E
$GNGLL,,,,,174929.00,V,N*54
$GNRMC,174930.00,V,,,,,,,050821,,,N*65
$GNVTG,,,,,,,,,N*2E
$GNGGA,174930.00,,,,,0,00,99.99,,,,,,*70
$GNGSA,A,1,,,,,,,,,,,,,99.99,99.99,99.99*2E
$GNGSA,A,1,,,,,,,,,,,,,99.99,99.99,99.99*2E
$GPGSV,1,1,03,02,28,067,,20,49,065,,26,16,319,*47
$GLGSV,3,1,10,65,43,097,,66,12,157,24,72,28,040,,78,23,222,17*6B
$GLGSV,3,2,10,79,39,281,,80,13,338,,81,44,301,,82,02,277,*69
$GLGSV,3,3,10,87,24,075,25,88,59,039,*6E
$GNGLL,,,,,174930.00,V,N*5C
$GNRMC,174931.00,V,,,,,,,050821,,,N*64
$GNVTG,,,,,,,,,N*2E
$GNGGA,174931.00,,,,,0,00,99.99,,,,,,*71
$GNGSA,A,1,,,,,,,,,,,,,99.99,99.99,99.99*2E
$GNGSA,A,1,,,,,,,,,,,,,99.99,99.99,99.99*2E
$GPGSV,1,1,03,02,28,067,,20,49,065,,26,16,319,*47
$GLGSV,3,1,10,65,43,097,,66,12,157,24,72,28,040,,78,23,222,17*6B
$GLGSV,3,2,10,79,39,281,,80,13,338,,81,44,301,,82,02,277,*69
$GLGSV,3,3,10,87,24,075,25,88,59,039,*6E
$GNGLL,,,,,174931.00,V,N*5D
$GNRMC,174932.00,A,4623.58749,N,11658.44499,W,0.976,,050821,,,A*7B
$GNVTG,,T,,M,0.976,N,1.807,K,A*3B
$GNGGA,174932.00,4623.58749,N,11658.44499,W,1,03,1.95,431.4,M,-18.2,M,,*7B
$GNGSA,A,2,,,,,,,,,,,,,2.19,1.95,1.00*1B
$GNGSA,A,2,87,66,78,,,,,,,,,,2.19,1.95,1.00*1B
$GPGSV,1,1,03,02,28,067,,20,49,065,,26,16,319,*47
$GLGSV,3,1,10,65,43,097,,66,12,157,24,72,28,040,,78,23,222,18*64
$GLGSV,3,2,10,79,39,281,,80,13,338,,81,44,301,,82,02,277,*69
$GLGSV,3,3,10,87,24,075,25,88,59,039,*6E
$GNGLL,4623.58749,N,11658.44499,W,174932.00,A,A*64
$GNRMC,174933.00,V,,,,,,,050821,,,N*66
$GNVTG,,,,,,,,,N*2E
$GNGGA,174933.00,,,,,0,03,1.95,,,,,,*4D
$GNGSA,A,1,,,,,,,,,,,,,2.19,1.95,1.00*18
$GNGSA,A,1,87,66,78,,,,,,,,,,2.19,1.95,1.00*18
$GPGSV,1,1,03,02,28,067,,20,49,065,,26,16,319,*47
$GLGSV,3,1,10,65,43,097,,66,12,157,23,72,28,040,,78,23,222,17*6C
$GLGSV,3,2,10,79,39,281,,80,13,338,,81,44,301,,82,02,277,*69
$GLGSV,3,3,10,87,24,075,25,88,59,039,*6E
$GNGLL,,,,,174933.00,V,N*5F
$GNRMC,174934.00,A,4623.58786,N,11658.44327,W,0.560,,050821,,,A*77
$GNVTG,,T,,M,0.560,N,1.038,K,A*34
$GNGGA,174934.00,4623.58786,N,11658.44327,W,1,03,1.95,431.3,M,-18.2,M,,*7B
$GNGSA,A,2,,,,,,,,,,,,,2.19,1.95,1.00*1B
$GNGSA,A,2,87,66,78,,,,,,,,,,2.19,1.95,1.00*1B
$GPGSV,1,1,03,02,28,067,,20,49,065,,26,16,319,*47
$GLGSV,3,1,10,65,43,097,,66,12,157,23,72,28,040,,78,23,222,16*6D
$GLGSV,3,2,10,79,39,281,,80,13,338,,81,44,301,,82,02,277,*69
$GLGSV,3,3,10,87,24,075,25,88,59,039,*6E
$GNGLL,4623.58786,N,11658.44327,W,174934.00,A,A*63
$GNRMC,174935.00,A,4623.58782,N,11658.44225,W,0.501,,050821,,,A*76
$GNVTG,,T,,M,0.501,N,0.927,K,A*35
$GNGGA,174935.00,4623.58782,N,11658.44225,W,1,03,1.95,431.4,M,-18.2,M,,*7A
$GNGSA,A,2,,,,,,,,,,,,,2.19,1.95,1.00*1B
$GNGSA,A,2,87,66,78,,,,,,,,,,2.19,1.95,1.00*1B
$GPGSV,1,1,03,02,28,067,,20,49,065,,26,16,319,*47
$GLGSV,3,1,10,65,43,097,,66,12,157,23,72,28,040,,78,23,222,14*6F
$GLGSV,3,2,10,79,39,281,,80,13,338,,81,44,301,,82,02,277,*69
$GLGSV,3,3,10,87,24,075,25,88,59,040,*60
$GNGLL,4623.58782,N,11658.44225,W,174935.00,A,A*65
$GNRMC,174936.00,A,4623.58781,N,11658.44224,W,0.644,,050821,,,A*75
$GNVTG,,T,,M,0.644,N,1.192,K,A*30
$GNGGA,174936.00,4623.58781,N,11658.44224,W,1,03,1.95,431.2,M,-18.2,M,,*7D
$GNGSA,A,2,,,,,,,,,,,,,2.19,1.95,1.00*1B
$GNGSA,A,2,87,66,78,,,,,,,,,,2.19,1.95,1.00*1B
$GPGSV,1,1,03,02,28,067,05,20,49,065,,26,16,319,*42
$GLGSV,3,1,10,65,43,097,,66,12,157,22,72,28,040,,78,23,222,13*69
$GLGSV,3,2,10,79,39,281,,80,13,338,,81,44,301,,82,02,277,*69
$GLGSV,3,3,10,87,24,075,25,88,59,040,*60
$GNGLL,4623.58781,N,11658.44224,W,174936.00,A,A*64
$GNRMC,174937.00,A,4623.58764,N,11658.44262,W,1.039,,050821,,,A*70
$GNVTG,,T,,M,1.039,N,1.924,K,A*38
$GNGGA,174937.00,4623.58764,N,11658.44262,W,1,03,1.95,431.2,M,-18.2,M,,*75
$GNGSA,A,2,,,,,,,,,,,,,2.19,1.95,1.00*1B
$GNGSA,A,2,87,66,78,,,,,,,,,,2.19,1.95,1.00*1B
$GPGSV,1,1,03,02,28,067,07,20,49,065,,26,16,319,*40
$GLGSV,3,1,10,65,43,097,,66,12,157,22,72,28,040,,78,23,222,11*6B
$GLGSV,3,2,10,79,39,281,,80,13,338,,81,44,301,,82,02,277,*69
$GLGSV,3,3,10,87,24,075,24,88,59,040,*61
$GNGLL,4623.58764,N,11658.44262,W,174937.00,A,A*6C
$GNRMC,174938.00,A,4623.58766,N,11658.44302,W,0.972,,050821,,,A*7D
$GNVTG,,T,,M,0.972,N,1.799,K,A*37
$GNGGA,174938.00,4623.58766,N,11658.44302,W,1,03,1.95,431.3,M,-18.2,M,,*7E
$GNGSA,A,2,,,,,,,,,,,,,2.19,1.95,1.00*1B
$GNGSA,A,2,87,66,78,,,,,,,,,,2.19,1.95,1.00*1B
$GPGSV,1,1,03,02,28,067,07,20,49,065,,26,16,319,*40
$GLGSV,3,1,10,65,43,097,,66,12,157,22,72,28,040,,78,23,222,09*62
$GLGSV,3,2,10,79,39,281,,80,13,338,,81,44,301,,82,02,277,*69
$GLGSV,3,3,10,87,24,075,25,88,59,040,*60
$GNGLL,4623.58766,N,11658.44302,W,174938.00,A,A*66
$GNRMC,174939.00,V,,,,,,,050821,,,N*6C
$GNVTG,,,,,,,,,N*2E
$GNGGA,174939.00,,,,,0,00,99.99,,,,,,*79
$GNGSA,A,1,,,,,,,,,,,,,99.99,99.99,99.99*2E
$GNGSA,A,1,,,,,,,,,,,,,99.99,99.99,99.99*2E
$GPGSV,1,1,03,02,28,067,06,20,48,064,,26,16,319,*41
$GLGSV,3,1,10,65,43,097,,66,12,157,22,72,28,040,,78,23,222,07*6C
$GLGSV,3,2,10,79,39,281,,80,13,338,,81,44,301,,82,02,277,*69
$GLGSV,3,3,10,87,24,075,24,88,59,040,*61
$GNGLL,,,,,174939.00,V,N*55
$GNRMC,174940.00,A,4623.58771,N,11658.44525,W,0.759,,050821,,,A*70
$GNVTG,,T,,M,0.759,N,1.406,K,A*35
$GNGGA,174940.00,4623.58771,N,11658.44525,W,1,03,1.95,432.0,M,-18.2,M,,*74
$GNGSA,A,2,,,,,,,,,,,,,2.19,1.95,1.00*1B
$GNGSA,A,2,87,66,78,,,,,,,,,,2.19,1.95,1.00*1B
$GPGSV,1,1,03,02,28,067,05,20,48,064,,26,16,318,*43
$GLGSV,3,1,10,65,43,097,,66,12,157,21,72,28,040,,78,23,222,11*68
$GLGSV,3,2,10,79,39,281,,80,13,338,,81,44,301,,82,02,277,*69
$GLGSV,3,3,10,87,24,075,25,88,59,040,*60
$GNGLL,4623.58771,N,11658.44525,W,174940.00,A,A*6C
$GNRMC,174941.00,A,4623.58775,N,11658.44558,W,0.842,,050821,,,A*7A
$GNVTG,,T,,M,0.842,N,1.559,K,A*3B
$GNGGA,174941.00,4623.58775,N,11658.44558,W,1,03,1.95,431.7,M,-18.2,M,,*7F
$GNGSA,A,2,,,,,,,,,,,,,2.19,1.95,1.00*1B
$GNGSA,A,2,87,66,78,,,,,,,,,,2.19,1.95,1.00*1B
$GPGSV,1,1,03,02,28,067,05,20,48,064,,26,16,318,*43
$GLGSV,3,1,10,65,43,097,,66,12,157,21,72,28,040,,78,23,222,10*69
$GLGSV,3,2,10,79,39,281,,80,13,338,,81,44,301,,82,02,277,*69
$GLGSV,3,3,10,87,24,075,25,88,59,040,*60
$GNGLL,4623.58775,N,11658.44558,W,174941.00,A,A*63
$GNRMC,174942.00,A,4623.58846,N,11658.44614,W,2.612,,050821,,,A*74
$GNVTG,,T,,M,2.612,N,4.838,K,A*3D
$GNGGA,174942.00,4623.58846,N,11658.44614,W,1,03,1.95,431.6,M,-18.2,M,,*79
$GNGSA,A,2,,,,,,,,,,,,,2.19,1.95,1.00*1B
$GNGSA,A,2,87,66,78,,,,,,,,,,2.19,1.95,1.00*1B
$GPGSV,1,1,03,02,28,067,05,20,48,064,,26,16,318,*43
$GLGSV,3,1,10,65,43,097,,66,12,157,21,72,28,040,,78,23,222,14*6D
$GLGSV,3,2,10,79,39,281,,80,13,338,,81,44,301,,82,02,277,*69
$GLGSV,3,3,10,87,24,075,25,88,59,040,*60
$GNGLL,4623.58846,N,11658.44614,W,174942.00,A,A*64
$GNRMC,174943.00,A,4623.58900,N,11658.44576,W,1.704,,050821,,,A*74
$GNVTG,,T,,M,1.704,N,3.156,K,A*3E
$GNGGA,174943.00,4623.58900,N,11658.44576,W,1,04,1.79,432.3,M,-18.2,M,,*7F
$GNGSA,A,2,02,,,,,,,,,,,,2.05,1.79,1.00*16
$GNGSA,A,2,87,66,78,,,,,,,,,,2.05,1.79,1.00*14
$GPGSV,1,1,03,02,28,067,09,20,48,064,,26,16,318,*4F
$GLGSV,3,1,10,65,43,097,,66,12,157,21,72,28,040,,78,23,222,13*6A
$GLGSV,3,2,10,79,39,281,,80,13,338,,81,44,301,,82,02,277,*69
$GLGSV,3,3,10,87,24,075,25,88,59,040,*60
$GNGLL,4623.58900,N,11658.44576,W,174943.00,A,A*61
$GNRMC,174944.00,A,4623.58934,N,11658.44616,W,1.999,,050821,,,A*7B
$GNVTG,,T,,M,1.999,N,3.702,K,A*33
$GNGGA,174944.00,4623.58934,N,11658.44616,W,1,04,1.79,431.7,M,-18.2,M,,*7D
$GNGSA,A,2,02,,,,,,,,,,,,2.05,1.79,1.00*16
$GNGSA,A,2,87,66,78,,,,,,,,,,2.05,1.79,1.00*14
$GPGSV,1,1,03,02,28,067,11,20,48,064,,26,16,318,*46
$GLGSV,3,1,10,65,43,097,,66,12,157,22,72,28,040,,78,23,222,12*68
$GLGSV,3,2,10,79,39,281,,80,13,338,,81,44,301,,82,02,277,*69
$GLGSV,3,3,10,87,24,075,25,88,59,040,*60
$GNGLL,4623.58934,N,11658.44616,W,174944.00,A,A*64
$GNRMC,174945.00,A,4623.58934,N,11658.44637,W,1.025,,050821,,,A*77
$GNVTG,,T,,M,1.025,N,1.899,K,A*32
$GNGGA,174945.00,4623.58934,N,11658.44637,W,1,04,1.79,431.6,M,-18.2,M,,*7E
$GNGSA,A,2,02,,,,,,,,,,,,2.05,1.79,1.00*16
$GNGSA,A,2,87,66,78,,,,,,,,,,2.05,1.79,1.00*14
$GPGSV,1,1,03,02,28,067,13,20,48,064,,26,16,318,*44
$GLGSV,3,1,10,65,43,097,,66,12,157,22,72,28,040,,78,23,222,13*69
$GLGSV,3,2,10,79,39,281,,80,13,338,,81,44,301,,82,02,277,*69
$GLGSV,3,3,10,87,24,075,25,88,59,040,*60
$GNGLL,4623.58934,N,11658.44637,W,174945.00,A,A*66
$GNRMC,174946.00,A,4623.58816,N,11658.44272,W,0.495,,050821,,,A*7E
$GNVTG,,T,,M,0.495,N,0.916,K,A*3B
$GNGGA,174946.00,4623.58816,N,11658.44272,W,1,04,1.79,430.2,M,-18.2,M,,*7C
$GNGSA,A,2,02,,,,,,,,,,,,2.05,1.79,1.00*16
$GNGSA,A,2,87,66,78,,,,,,,,,,2.05,1.79,1.00*14
$GPGSV,1,1,03,02,28,067,09,20,48,064,,26,16,318,*4F
$GLGSV,3,1,10,65,43,097,,66,12,157,22,72,28,040,,78,23,222,18*62
$GLGSV,3,2,10,79,39,281,,80,13,338,,81,44,301,,82,02,277,*69
$GLGSV,3,3,10,87,24,075,25,88,59,040,*60
$GNGLL,4623.58816,N,11658.44272,W,174946.00,A,A*61
$GNRMC,174947.00,A,4623.58844,N,11658.44301,W,1.288,,050821,,,A*76
$GNVTG,,T,,M,1.288,N,2.386,K,A*31
$GNGGA,174947.00,4623.58844,N,11658.44301,W,1,04,1.79,430.9,M,-18.2,M,,*74
$GNGSA,A,2,02,,,,,,,,,,,,2.05,1.79,1.00*16
$GNGSA,A,2,87,66,78,,,,,,,,,,2.05,1.79,1.00*14
$GPGSV,1,1,03,02,28,067,14,20,48,064,,26,16,318,*43
$GLGSV,3,1,10,65,43,097,,66,12,157,21,72,28,040,,78,23,222,16*6F
$GLGSV,3,2,10,79,39,281,,80,13,338,,81,44,301,,82,02,277,*69
$GLGSV,3,3,10,87,24,075,25,88,59,040,*60
$GNGLL,4623.58844,N,11658.44301,W,174947.00,A,A*62
$GNRMC,174948.00,A,4623.58768,N,11658.44268,W,1.356,,050821,,,A*74
$GNVTG,,T,,M,1.356,N,2.512,K,A*38
$GNGGA,174948.00,4623.58768,N,11658.44268,W,1,04,1.79,431.0,M,-18.2,M,,*7C
$GNGSA,A,2,02,,,,,,,,,,,,2.05,1.79,1.00*16
$GNGSA,A,2,87,66,78,,,,,,,,,,2.05,1.79,1.00*14
$GPGSV,1,1,03,02,28,067,13,20,48,064,,26,16,318,*44
$GLGSV,3,1,10,65,43,097,,66,12,157,20,72,28,040,,78,23,222,16*6E
$GLGSV,3,2,10,79,39,281,,80,13,338,,81,44,301,,82,02,277,*69
$GLGSV,3,3,10,87,24,075,25,88,59,040,*60
$GNGLL,4623.58768,N,11658.44268,W,174948.00,A,A*62
$GNRMC,174949.00,A,4623.58647,N,11658.43972,W,1.151,,050821,,,A*7B
$GNVTG,,T,,M,1.151,N,2.131,K,A*38
$GNGGA,174949.00,4623.58647,N,11658.43972,W,1,03,1.95,430.3,M,-18.2,M,,*71
$GNGSA,A,2,,,,,,,,,,,,,2.19,1.95,1.00*1B
$GNGSA,A,2,87,66,78,,,,,,,,,,2.19,1.95,1.00*1B
$GPGSV,1,1,03,02,28,067,07,20,48,064,,26,16,318,*41
$GLGSV,3,1,10,65,43,097,,66,12,157,17,72,28,040,,78,23,222,15*69
$GLGSV,3,2,10,79,39,281,,80,13,338,,81,44,301,,82,02,277,*69
$GLGSV,3,3,10,87,24,075,25,88,59,040,*60
$GNGLL,4623.58647,N,11658.43972,W,174949.00,A,A*68
$GNRMC,174950.00,A,4623.58527,N,11658.43892,W,2.958,,050821,,,A*7B
$GNVTG,,T,,M,2.958,N,5.478,K,A*35
$GNGGA,174950.00,4623.58527,N,11658.43892,W,1,03,1.95,430.7,M,-18.2,M,,*77
$GNGSA,A,2,,,,,,,,,,,,,2.19,1.95,1.00*1B
$GNGSA,A,2,87,66,78,,,,,,,,,,2.19,1.95,1.00*1B
$GPGSV,1,1,03,02,28,067,08,20,48,064,,26,16,318,*4E
$GLGSV,3,1,10,65,43,097,,66,12,157,16,72,28,040,,78,23,222,16*6B
$GLGSV,3,2,10,79,39,281,,80,13,338,,81,44,301,,82,02,277,*69
$GLGSV,3,3,10,87,24,075,25,88,59,040,*60
$GNGLL,4623.58527,N,11658.43892,W,174950.00,A,A*6A
$GNRMC,174951.00,A,4623.58511,N,11658.43892,W,1.471,,050821,,,A*7A
$GNVTG,,T,,M,1.471,N,2.725,K,A*3C
$GNGGA,174951.00,4623.58511,N,11658.43892,W,1,03,1.95,430.9,M,-18.2,M,,*7D
$GNGSA,A,2,,,,,,,,,,,,,2.19,1.95,1.00*1B
$GNGSA,A,2,87,66,78,,,,,,,,,,2.19,1.95,1.00*1B
$GPGSV,1,1,03,02,28,067,10,20,48,064,,26,16,318,*47
$GLGSV,3,1,10,65,43,097,,66,12,157,16,72,28,040,,78,23,222,14*69
$GLGSV,3,2,10,79,39,281,,80,13,338,,81,44,301,,82,02,277,*69
$GLGSV,3,3,10,87,24,075,25,88,59,040,*60
$GNGLL,4623.58511,N,11658.43892,W,174951.00,A,A*6E
$GNRMC,174952.00,A,4623.58455,N,11658.43806,W,1.647,,050821,,,A*72
$GNVTG,,T,,M,1.647,N,3.050,K,A*3F
$GNGGA,174952.00,4623.58455,N,11658.43806,W,1,04,1.79,431.1,M,-18.2,M,,*7E
$GNGSA,A,2,02,,,,,,,,,,,,2.05,1.79,1.00*16
$GNGSA,A,2,87,66,78,,,,,,,,,,2.05,1.79,1.00*14
$GPGSV,1,1,03,02,28,067,13,20,48,064,,26,16,318,*44
$GLGSV,3,1,10,65,43,097,,66,12,157,17,72,28,040,,78,23,222,17*6B
$GLGSV,3,2,10,79,39,281,,80,13,338,,81,44,301,,82,02,277,*69
$GLGSV,3,3,10,87,24,075,26,88,59,040,*63
$GNGLL,4623.58455,N,11658.43806,W,174952.00,A,A*61
$GNRMC,174953.00,A,4623.58332,N,11658.43719,W,3.415,,050821,,,A*73
$GNVTG,,T,,M,3.415,N,6.325,K,A*3C
$GNGGA,174953.00,4623.58332,N,11658.43719,W,1,04,1.79,431.4,M,-18.2,M,,*7D
$GNGSA,A,2,02,,,,,,,,,,,,2.05,1.79,1.00*16
$GNGSA,A,2,87,66,78,,,,,,,,,,2.05,1.79,1.00*14
$GPGSV,1,1,03,02,28,067,14,20,48,064,,26,16,318,*43
$GLGSV,3,1,10,65,43,097,,66,12,157,18,72,28,040,,78,23,222,19*6A
$GLGSV,3,2,10,79,39,281,,80,13,338,,81,44,301,,82,02,277,*69
$GLGSV,3,3,10,87,24,075,26,88,59,040,*63
$GNGLL,4623.58332,N,11658.43719,W,174953.00,A,A*67
$GNRMC,174954.00,A,4623.58333,N,11658.43683,W,0.663,,050821,,,A*77
$GNVTG,,T,,M,0.663,N,1.227,K,A*38
$GNGGA,174954.00,4623.58333,N,11658.43683,W,1,04,1.79,431.3,M,-18.2,M,,*7E
$GNGSA,A,2,02,,,,,,,,,,,,2.05,1.79,1.00*16
$GNGSA,A,2,87,66,78,,,,,,,,,,2.05,1.79,1.00*14
$GPGSV,1,1,03,02,28,067,14,20,48,064,,26,16,318,*43
$GLGSV,3,1,10,65,43,097,,66,12,157,19,72,28,040,,78,23,222,17*65
$GLGSV,3,2,10,79,39,281,,80,13,338,,81,44,301,,82,02,277,*69
$GLGSV,3,3,10,87,24,075,25,88,59,040,*60
$GNGLL,4623.58333,N,11658.43683,W,174954.00,A,A*63
$GNRMC,174955.00,A,4623.58320,N,11658.43638,W,0.431,,050821,,,A*71
$GNVTG,,T,,M,0.431,N,0.797,K,A*32
$GNGGA,174955.00,4623.58320,N,11658.43638,W,1,04,1.79,431.2,M,-18.2,M,,*7C
$GNGSA,A,2,02,,,,,,,,,,,,2.05,1.79,1.00*16
$GNGSA,A,2,87,66,78,,,,,,,,,,2.05,1.79,1.00*14
$GPGSV,1,1,03,02,28,067,14,20,48,064,,26,16,318,*43
$GLGSV,3,1,10,65,43,097,,66,12,157,20,72,28,040,,78,23,222,18*60
$GLGSV,3,2,10,79,39,281,,80,13,338,,81,44,301,,82,02,277,*69
$GLGSV,3,3,10,87,24,075,24,88,59,040,*61
$GNGLL,4623.58320,N,11658.43638,W,174955.00,A,A*60
$GNRMC,174956.00,A,4623.58344,N,11658.43615,W,1.122,,050821,,,A*79
$GNVTG,,T,,M,1.122,N,2.079,K,A*31
$GNGGA,174956.00,4623.58344,N,11658.43615,W,1,04,1.79,431.1,M,-18.2,M,,*71
$GNGSA,A,2,02,,,,,,,,,,,,2.05,1.79,1.00*16
$GNGSA,A,2,87,66,78,,,,,,,,,,2.05,1.79,1.00*14
$GPGSV,1,1,03,02,28,067,13,20,48,064,,26,16,318,*44
$GLGSV,3,1,10,65,43,097,,66,12,157,22,72,28,040,,78,23,222,17*6D
$GLGSV,3,2,10,79,39,281,,80,13,338,,81,44,301,,82,02,277,*69
$GLGSV,3,3,10,87,24,075,24,88,59,040,*61
$GNGLL,4623.58344,N,11658.43615,W,174956.00,A,A*6E
$GNRMC,174957.00,A,4623.58422,N,11658.43707,W,0.937,,050821,,,A*70
$GNVTG,,T,,M,0.937,N,1.736,K,A*33
$GNGGA,174957.00,4623.58422,N,11658.43707,W,1,04,1.79,431.1,M,-18.2,M,,*75
$GNGSA,A,2,02,,,,,,,,,,,,2.05,1.79,1.00*16
$GNGSA,A,2,87,66,78,,,,,,,,,,2.05,1.79,1.00*14
$GPGSV,1,1,03,02,28,067,13,20,48,064,,26,16,318,*44
$GLGSV,3,1,10,65,43,096,,66,12,157,23,72,28,040,,78,23,222,16*6C
$GLGSV,3,2,10,79,39,281,,80,13,338,,81,44,301,,82,02,277,*69
$GLGSV,3,3,10,87,24,075,24,88,59,040,*61
$GNGLL,4623.58422,N,11658.43707,W,174957.00,A,A*6A
$GNRMC,174958.00,A,4623.58420,N,11658.43717,W,0.644,,050821,,,A*77
$GNVTG,,T,,M,0.644,N,1.193,K,A*31
$GNGGA,174958.00,4623.58420,N,11658.43717,W,1,04,1.79,430.9,M,-18.2,M,,*70
$GNGSA,A,2,02,,,,,,,,,,,,2.05,1.79,1.00*16
$GNGSA,A,2,87,66,78,,,,,,,,,,2.05,1.79,1.00*14
$GPGSV,1,1,03,02,28,067,12,20,48,064,,26,16,318,*45
$GLGSV,3,1,10,65,43,096,,66,12,157,22,72,28,040,,78,23,222,15*6E
$GLGSV,3,2,10,79,39,281,,80,13,338,,81,44,301,,82,02,277,*69
$GLGSV,3,3,10,87,24,075,24,88,59,040,*61
$GNGLL,4623.58420,N,11658.43717,W,174958.00,A,A*66
$GNRMC,174959.00,A,4623.58403,N,11658.43686,W,0.532,,050821,,,A*7C
$GNVTG,,T,,M,0.532,N,0.985,K,A*3D
$GNGGA,174959.00,4623.58403,N,11658.43686,W,1,04,1.79,430.9,M,-18.2,M,,*79
$GNGSA,A,2,02,,,,,,,,,,,,2.05,1.79,1.00*16
$GNGSA,A,2,87,66,78,,,,,,,,,,2.05,1.79,1.00*14
$GPGSV,1,1,03,02,28,067,12,20,48,064,,26,16,318,*45
$GLGSV,3,1,10,65,43,096,,66,12,157,22,72,28,040,,78,23,222,15*6E
$GLGSV,3,2,10,79,39,281,,80,13,338,,81,44,301,,82,02,277,*69
$GLGSV,3,3,10,87,24,075,24,88,59,040,*61
$GNGLL,4623.58403,N,11658.43686,W,174959.00,A,A*6F
$GNRMC,175000.00,A,4623.58385,N,11658.43675,W,0.672,,050821,,,A*7A
$GNVTG,,T,,M,0.672,N,1.244,K,A*3D
$GNGGA,175000.00,4623.58385,N,11658.43675,W,1,04,1.79,430.7,M,-18.2,M,,*76
$GNGSA,A,2,02,,,,,,,,,,,,2.05,1.79,1.00*16
$GNGSA,A,2,87,66,78,,,,,,,,,,2.05,1.79,1.00*14
$GPGSV,1,1,03,02,28,067,12,20,48,064,,26,16,318,*45
$GLGSV,3,1,10,65,43,096,,66,12,157,22,72,28,040,,78,23,222,15*6E
$GLGSV,3,2,10,79,39,281,,80,13,338,,81,44,301,,82,02,277,*69
$GLGSV,3,3,10,87,24,075,25,88,59,040,*60
$GNGLL,4623.58385,N,11658.43675,W,175000.00,A,A*6E
$GNRMC,175001.00,A,4623.58403,N,11658.43669,W,0.351,,050821,,,A*7B
$GNVTG,,T,,M,0.351,N,0.650,K,A*39
$GNGGA,175001.00,4623.58403,N,11658.43669,W,1,04,1.79,430.5,M,-18.2,M,,*71
$GNGSA,A,2,02,,,,,,,,,,,,2.05,1.79,1.00*16
$GNGSA,A,2,87,66,78,,,,,,,,,,2.05,1.79,1.00*14
$GPGSV,1,1,03,02,28,067,13,20,48,064,,26,16,318,*44
$GLGSV,3,1,10,65,43,096,,66,12,157,21,72,28,040,,78,23,222,15*6D
$GLGSV,3,2,10,79,39,281,,80,13,338,,81,44,301,,82,02,277,*69
$GLGSV,3,3,10,87,24,075,25,88,59,040,*60
$GNGLL,4623.58403,N,11658.43669,W,175001.00,A,A*6B
$GNRMC,175002.00,A,4623.58413,N,11658.43584,W,1.312,,050821,,,A*7F
$GNVTG,,T,,M,1.312,N,2.431,K,A*38
$GNGGA,175002.00,4623.58413,N,11658.43584,W,1,04,1.79,430.5,M,-18.2,M,,*73
$GNGSA,A,2,02,,,,,,,,,,,,2.05,1.79,1.00*16
$GNGSA,A,2,87,66,78,,,,,,,,,,2.05,1.79,1.00*14
$GPGSV,1,1,03,02,28,067,13,20,48,064,,26,16,318,*44
$GLGSV,3,1,10,65,43,096,,66,12,157,20,72,28,040,,78,23,222,14*6D
$GLGSV,3,2,10,79,39,281,,80,13,338,,81,44,301,,82,02,277,*69
$GLGSV,3,3,10,87,24,075,25,88,59,040,*60
$GNGLL,4623.58413,N,11658.43584,W,175002.00,A,A*69
$GNRMC,175003.00,A,4623.58371,N,11658.43501,W,1.492,,050821,,,A*7F
$GNVTG,,T,,M,1.492,N,2.763,K,A*33
$GNGGA,175003.00,4623.58371,N,11658.43501,W,1,04,1.79,430.8,M,-18.2,M,,*71
$GNGSA,A,2,02,,,,,,,,,,,,2.05,1.79,1.00*16
$GNGSA,A,2,87,66,78,,,,,,,,,,2.05,1.79,1.00*14
$GPGSV,1,1,03,02,28,067,14,20,48,064,,26,16,318,*43
$GLGSV,3,1,10,65,43,096,,66,12,157,20,72,28,040,,78,23,222,14*6D
$GLGSV,3,2,10,79,39,281,,80,13,338,,81,44,301,,82,02,277,*69
$GLGSV,3,3,10,87,24,075,24,88,59,040,*61
$GNGLL,4623.58371,N,11658.43501,W,175003.00,A,A*66
$GNRMC,175004.00,A,4623.58386,N,11658.43461,W,1.213,,050821,,,A*78
$GNVTG,,T,,M,1.213,N,2.247,K,A*3F
$GNGGA,175004.00,4623.58386,N,11658.43461,W,1,04,1.79,431.1,M,-18.2,M,,*71
$GNGSA,A,2,02,,,,,,,,,,,,2.05,1.79,1.00*16
$GNGSA,A,2,87,66,78,,,,,,,,,,2.05,1.79,1.00*14
$GPGSV,1,1,03,02,28,067,12,20,48,064,,26,16,318,*45
$GLGSV,3,1,10,65,43,096,,66,12,157,19,72,28,040,,78,23,222,13*60
$GLGSV,3,2,10,79,39,281,,80,13,338,,81,44,301,,82,02,277,*69
$GLGSV,3,3,10,87,24,075,24,88,59,040,*61
$GNGLL,4623.58386,N,11658.43461,W,175004.00,A,A*6E
$GNRMC,175005.00,A,4623.58449,N,11658.43509,W,0.863,,050821,,,A*7E
$GNVTG,,T,,M,0.863,N,1.598,K,A*35
$GNGGA,175005.00,4623.58449,N,11658.43509,W,1,04,1.79,431.3,M,-18.2,M,,*79
$GNGSA,A,2,02,,,,,,,,,,,,2.05,1.79,1.00*16
$GNGSA,A,2,87,66,78,,,,,,,,,,2.05,1.79,1.00*14
$GPGSV,1,1,03,02,28,067,12,20,48,064,,26,16,318,*45
$GLGSV,3,1,10,65,43,096,,66,12,157,20,72,28,040,,78,23,222,12*6B
$GLGSV,3,2,10,79,39,281,,80,13,338,,81,44,301,,82,02,277,*69
$GLGSV,3,3,10,87,24,075,23,88,59,040,*66
$GNGLL,4623.58449,N,11658.43509,W,175005.00,A,A*64
$GNRMC,175006.00,A,4623.58483,N,11658.43548,W,1.327,,050821,,,A*74
$GNVTG,,T,,M,1.327,N,2.458,K,A*31
$GNGGA,175006.00,4623.58483,N,11658.43548,W,1,03,1.95,430.7,M,-18.2,M,,*79
$GNGSA,A,2,,,,,,,,,,,,,2.19,1.95,1.00*1B
$GNGSA,A,2,87,66,78,,,,,,,,,,2.19,1.95,1.00*1B
$GPGSV,1,1,03,02,28,067,09,20,48,064,,26,16,318,*4F
$GLGSV,3,1,10,65,43,096,,66,12,157,20,72,28,040,,78,23,222,13*6A
$GLGSV,3,2,10,79,39,281,,80,13,338,,81,44,301,,82,02,277,*69
$GLGSV,3,3,10,87,24,075,24,88,59,040,*61
$GNGLL,4623.58483,N,11658.43548,W,175006.00,A,A*64
$GNRMC,175007.00,A,4623.58504,N,11658.43566,W,0.386,,050821,,,A*7D
$GNVTG,,T,,M,0.386,N,0.715,K,A*33
$GNGGA,175007.00,4623.58504,N,11658.43566,W,1,04,1.79,431.1,M,-18.2,M,,*78
$GNGSA,A,2,02,,,,,,,,,,,,2.05,1.79,1.00*16
$GNGSA,A,2,87,66,78,,,,,,,,,,2.05,1.79,1.00*14
$GPGSV,1,1,03,02,28,067,08,20,48,064,,26,16,318,*4E
$GLGSV,3,1,10,65,43,096,,66,12,157,20,72,28,040,,78,23,222,15*6C
$GLGSV,3,2,10,79,39,281,,80,13,338,,81,44,301,,82,02,277,*69
$GLGSV,3,3,10,87,24,075,24,88,59,040,*61
$GNGLL,4623.58504,N,11658.43566,W,175007.00,A,A*67
$GNRMC,175008.00,A,4623.58507,N,11658.43574,W,0.211,,050821,,,A*7D
$GNVTG,,T,,M,0.211,N,0.391,K,A*34
$GNGGA,175008.00,4623.58507,N,11658.43574,W,1,04,1.79,431.1,M,-18.2,M,,*77
$GNGSA,A,2,02,,,,,,,,,,,,2.05,1.79,1.00*16
$GNGSA,A,2,87,66,78,,,,,,,,,,2.05,1.79,1.00*14
$GPGSV,1,1,03,02,28,067,08,20,48,064,,26,16,318,*4E
$GLGSV,3,1,10,65,43,096,,66,12,157,21,72,28,040,,78,23,222,13*6B
$GLGSV,3,2,10,79,39,281,,80,13,338,,81,44,301,,82,02,277,*69
$GLGSV,3,3,10,87,24,075,23,88,59,040,*66
$GNGLL,4623.58507,N,11658.43574,W,175008.00,A,A*68
$GNRMC,175009.00,A,4623.58496,N,11658.43583,W,0.263,,050821,,,A*78
$GNVTG,,T,,M,0.263,N,0.488,K,A*3E
$GNGGA,175009.00,4623.58496,N,11658.43583,W,1,03,1.95,430.8,M,-18.2,M,,*7A
$GNGSA,A,2,,,,,,,,,,,,,2.19,1.95,1.00*1B
$GNGSA,A,2,87,66,78,,,,,,,,,,2.19,1.95,1.00*1B
$GPGSV,1,1,03,02,28,067,08,20,48,064,,26,16,318,*4E
$GLGSV,3,1,10,65,43,096,,66,12,157,21,72,28,040,,78,23,222,14*6C
$GLGSV,3,2,10,79,39,281,,80,13,338,,81,44,301,,82,02,277,*69
$GLGSV,3,3,10,87,24,075,23,88,59,040,*66
$GNGLL,4623.58496,N,11658.43583,W,175009.00,A,A*68
$GNRMC,175010.00,A,4623.58523,N,11658.43610,W,0.833,,050821,,,A*79
$GNVTG,,T,,M,0.833,N,1.543,K,A*36
$GNGGA,175010.00,4623.58523,N,11658.43610,W,1,03,1.95,430.7,M,-18.2,M,,*7B
$GNGSA,A,2,,,,,,,,,,,,,2.20,1.95,1.00*11
$GNGSA,A,2,87,66,78,,,,,,,,,,2.20,1.95,1.00*11
$GPGSV,1,1,03,02,28,067,08,20,48,064,,26,16,318,*4E
